[{"address":"JOSE MA. CASTORENA NO. 84  COL. SAN JOSE DE LOS CEDROS,","name":"Red Barn Stores 3858-CUAJIMALPA","index":0,"pristine":false,"geocode":{"formattedAddress":"José Ma. Castorena 84, Rosa Torres, 05200 Ciudad de México, CDMX, Mexico","latitude":19.3608033,"longitude":-99.29238219999999,"extra":{"googlePlaceId":"EktKb3PDqSBNYS4gQ2FzdG9yZW5hIDg0LCBSb3NhIFRvcnJlcywgMDUyMDAgQ2l1ZGFkIGRlIE3DqXhpY28sIENETVgsIE3DqXhpY28","confidence":0.9,"premise":null,"subpremise":null,"neighborhood":"Rosa Torres","establishment":null},"administrativeLevels":{"level1long":"Ciudad de México","level1short":"CDMX"},"streetNumber":"84","streetName":"José Ma. Castorena","city":"Ciudad de México","country":"Mexico","countryCode":"MX","zipcode":"05200","provider":"google"}},{"address":"BOULEVARD MANUEL AVILA CAMACHO NO. 491 COL. PERIODISTAS ","name":"Red Barn Stores 2344-LOMAS","index":1,"pristine":false,"geocode":{"formattedAddress":"Perif. Blvd. Manuel Ávila Camacho 491, Periodista, 11220 Ciudad de México, CDMX, Mexico","latitude":19.4497769,"longitude":-99.2176528,"extra":{"googlePlaceId":"ChIJm6pZ1TgC0oURnfGivATyHNU","confidence":1,"premise":null,"subpremise":null,"neighborhood":"Periodista","establishment":null},"administrativeLevels":{"level1long":"Ciudad de México","level1short":"CDMX"},"streetNumber":"491","streetName":"Periférico Boulevard Manuel Ávila Camacho","city":"Ciudad de México","country":"Mexico","countryCode":"MX","zipcode":"11220","provider":"google"}},{"address":"AV. PROLONGACIÓN PASEO DE LA REFORMA NO. 400,","name":"Red Barn Stores 1770-PATIO SANTA FE","index":2,"pristine":false,"geocode":{"formattedAddress":"Prolongacion Paseo de la Reforma 400, Santa Fe, Zedec Sta Fé, 01210 Ciudad de México, CDMX, Mexico","latitude":19.377213,"longitude":-99.25449719999999,"extra":{"googlePlaceId":"ChIJ95EKjOAA0oUR1xzP3zEyQi0","confidence":1,"premise":null,"subpremise":null,"neighborhood":"Santa Fe","establishment":null},"administrativeLevels":{"level1long":"Ciudad de México","level1short":"CDMX"},"streetNumber":"400","streetName":"Prolongacion Paseo de la Reforma","city":"Ciudad de México","country":"Mexico","countryCode":"MX","zipcode":"01210","provider":"google"}},{"address":"AV. CUITLÁHUAC NO. 3651 COL. HOGAR Y SEGURIDAD","name":"Red Barn Stores 2466-CUITLAHUAC","index":3,"pristine":false,"geocode":{"formattedAddress":"Av. Cuitláhuac 3651, Cuitlahuac, 02500 Ciudad de México, CDMX, Mexico","latitude":19.4698258,"longitude":-99.1711608,"extra":{"googlePlaceId":"EkhBdi4gQ3VpdGzDoWh1YWMgMzY1MSwgQ3VpdGxhaHVhYywgMDI1MDAgQ2l1ZGFkIGRlIE3DqXhpY28sIENETVgsIE3DqXhpY28","confidence":0.9,"premise":null,"subpremise":null,"neighborhood":"Cuitlahuac","establishment":null},"administrativeLevels":{"level1long":"Ciudad de México","level1short":"CDMX"},"streetNumber":"3651","streetName":"Avenida Cuitláhuac","city":"Ciudad de México","country":"Mexico","countryCode":"MX","zipcode":"02500","provider":"google"}},{"address":"AV. NEXTENGO NO. 78 COL. SANTA CRUZ ACAYUCAN , MEXICO D.F.","name":"Red Barn Stores 3862-AZCAPOTZALCO","index":4,"pristine":false,"geocode":{"formattedAddress":"Calle Camino a Nextengo 78, Santa Cruz Acayucan, 02770 Ciudad de México, CDMX, Mexico","latitude":19.473208,"longitude":-99.19084559999999,"extra":{"googlePlaceId":"EldDYWxsZSBDYW1pbm8gYSBOZXh0ZW5nbyA3OCwgU2FudGEgQ3J1eiBBY2F5dWNhbiwgMDI3NzAgQ2l1ZGFkIGRlIE3DqXhpY28sIENETVgsIE3DqXhpY28","confidence":0.9,"premise":null,"subpremise":null,"neighborhood":"Santa Cruz Acayucan","establishment":null},"administrativeLevels":{"level1long":"Ciudad de México","level1short":"CDMX"},"streetNumber":"78","streetName":"Calle Camino a Nextengo","city":"Ciudad de México","country":"Mexico","countryCode":"MX","zipcode":"02770","provider":"google"}},{"address":"CALZ. TLÁHUAC NO. 5662  COL. SAN LORENZO TEZONCO ","name":"Red Barn Stores 2347-TLAHUAC","index":5,"pristine":false,"geocode":{"formattedAddress":"Av. Tláhuac 5662, Área Federal Panteón San Lorenzo Tezonco, 09840 Ciudad de México, CDMX, Mexico","latitude":19.3067383,"longitude":-99.0605894,"extra":{"googlePlaceId":"ChIJsZvLPFcCzoUR4sumKKCTVmo","confidence":1,"premise":null,"subpremise":null,"neighborhood":"Área Federal Panteón San Lorenzo Tezonco","establishment":null},"administrativeLevels":{"level1long":"Ciudad de México","level1short":"CDMX"},"streetNumber":"5662","streetName":"Avenida Tláhuac","city":"Ciudad de México","country":"Mexico","countryCode":"MX","zipcode":"09840","provider":"google"}},{"address":"AV. ESCUELA NAVAL MILITAR # 753","name":"Red Barn Stores 2464-MIRAMONTES ","index":6,"pristine":false,"geocode":{"formattedAddress":"Av. Heroica Escuela Naval Militar 753, Alianza Popular Revolucionaria, 04890 Ciudad de México, CDMX, Mexico","latitude":19.3172037,"longitude":-99.12490489999999,"extra":{"googlePlaceId":"ChIJfypv9MABzoURsUxHUCnCB-c","confidence":1,"premise":null,"subpremise":null,"neighborhood":"Alianza Popular Revolucionaria","establishment":null},"administrativeLevels":{"level1long":"Ciudad de México","level1short":"CDMX"},"streetNumber":"753","streetName":"Avenida Heroica Escuela Naval Militar","city":"Ciudad de México","country":"Mexico","countryCode":"MX","zipcode":"04890","provider":"google"}},{"address":"CALZADA TLALPAN NO. 1037  COL. AMERICAS UNIDAS","name":"Red Barn Stores 2670-TLALPAN","index":7,"pristine":false,"geocode":{"formattedAddress":"Calz. de Tlalpan 1037, Américas Unidas, 03500 Ciudad de México, CDMX, Mexico","latitude":19.3802372,"longitude":-99.14116030000001,"extra":{"googlePlaceId":"ChIJUUu5AFT-0YUR7wQFSF6Wmjg","confidence":1,"premise":null,"subpremise":null,"neighborhood":"Américas Unidas","establishment":null},"administrativeLevels":{"level1long":"Ciudad de México","level1short":"CDMX"},"streetNumber":"1037","streetName":"Calzada de Tlalpan","city":"Ciudad de México","country":"Mexico","countryCode":"MX","zipcode":"03500","provider":"google"}},{"address":"AV. CANAL DE MIRAMONTES NO. 3520 COL. SAN BARTOLO COAPA ","name":"Red Barn Stores 3857-VILLA COAPA","index":8,"pristine":false,"geocode":{"formattedAddress":"Av. Canal de Miramontes 3520, Equipamiento Plaza Coapa, 14390 Ciudad de México, CDMX, Mexico","latitude":19.294388,"longitude":-99.1253115,"extra":{"googlePlaceId":"ChIJPcBIRKABzoURZQUWD_GhJuY","confidence":1,"premise":null,"subpremise":null,"neighborhood":"Equipamiento Plaza Coapa","establishment":null},"administrativeLevels":{"level1long":"Ciudad de México","level1short":"CDMX"},"streetNumber":"3520","streetName":"Avenida Canal de Miramontes","city":"Ciudad de México","country":"Mexico","countryCode":"MX","zipcode":"14390","provider":"google"}},{"address":"CALZ. DE GUADALUPE NO. 431 COL. GUADALUPE TEPEYAC ","name":"Red Barn Stores 2345-TEPEYAC","index":9,"pristine":false,"geocode":{"formattedAddress":"Calz de Guadalupe 431, Guadalupe Tepeyac, 07840 Ciudad de México, CDMX, Mexico","latitude":19.4716989,"longitude":-99.11978289999999,"extra":{"googlePlaceId":"ChIJP43kRXL50YURL7mjWLqv02A","confidence":1,"premise":null,"subpremise":null,"neighborhood":"Guadalupe Tepeyac","establishment":null},"administrativeLevels":{"level1long":"Ciudad de México","level1short":"CDMX"},"streetNumber":"431","streetName":"Calzada de Guadalupe","city":"Ciudad de México","country":"Mexico","countryCode":"MX","zipcode":"07840","provider":"google"}},{"address":"AV. LUIS ESPINOZA NO.  160 COL. SANTIAGO ATEPETLAC,","name":"Red Barn Stores 3794-ACUEDUCTO DE GUADALUPE","index":10,"pristine":false,"geocode":{"formattedAddress":"Calle Luis Espinoza 160, Solidaridad Nacional, 07264 Ciudad de México, CDMX, Mexico","latitude":19.531428,"longitude":-99.15573189999999,"extra":{"googlePlaceId":"ChIJZRBxaYb30YUR9FYyh6UFyzM","confidence":1,"premise":null,"subpremise":null,"neighborhood":"Solidaridad Nacional","establishment":null},"administrativeLevels":{"level1long":"Ciudad de México","level1short":"CDMX"},"streetNumber":"160","streetName":"Calle Luis Espinoza","city":"Ciudad de México","country":"Mexico","countryCode":"MX","zipcode":"07264","provider":"google"}},{"address":"INSURGENTES NORTE NO. 131, COL GUERRERO","name":"Red Barn Stores 3846-BUENAVISTA","index":11,"pristine":false,"geocode":{"formattedAddress":"Av. Insurgentes Nte. 131, Buenavista, 06350 Ciudad de México, CDMX, Mexico","latitude":19.4434852,"longitude":-99.1530404,"extra":{"googlePlaceId":"ChIJl0J-mtD40YURJB1GISNH8ro","confidence":1,"premise":null,"subpremise":null,"neighborhood":"Buenavista","establishment":null},"administrativeLevels":{"level1long":"Ciudad de México","level1short":"CDMX"},"streetNumber":"131","streetName":"Avenida Insurgentes Norte","city":"Ciudad de México","country":"Mexico","countryCode":"MX","zipcode":"06350","provider":"google"}},{"address":"CALZADA IGNACIO ZARAGOZA NO. 58   COL. FEDERAL ","name":"Red Barn Stores 3851-AEROPUERTO","index":12,"pristine":false,"geocode":{"formattedAddress":"Calz. Ignacio Zaragoza 58, Moctezuma 1ra Secc, 15500 Ciudad de México, CDMX, Mexico","latitude":19.4262263,"longitude":-99.10776,"extra":{"googlePlaceId":"ChIJTzh-2a7-0YUR10z8Yu13bbA","confidence":1,"premise":null,"subpremise":null,"neighborhood":"Moctezuma 1ra Sección","establishment":null},"administrativeLevels":{"level1long":"Ciudad de México","level1short":"CDMX"},"streetNumber":"58","streetName":"Calzada Ignacio Zaragoza","city":"Ciudad de México","country":"Mexico","countryCode":"MX","zipcode":"15500","provider":"google"}},{"address":"FRAY SERVANDO TERESA DE MIER NO. 881 COL.  JARDIN BALBUENA","name":"Red Barn Stores 3872-BALBUENA","index":13,"pristine":false,"geocode":{"formattedAddress":"Fray Servando Teresa de Mier 881, Jardín Balbuena, 15900 Ciudad de México, CDMX, Mexico","latitude":19.4175648,"longitude":-99.105768,"extra":{"googlePlaceId":"ChIJbdCVtqb-0YURoLfk3h0lL_8","confidence":1,"premise":null,"subpremise":null,"neighborhood":"Jardín Balbuena","establishment":null},"administrativeLevels":{"level1long":"Ciudad de México","level1short":"CDMX"},"streetNumber":"881","streetName":"Fray Servando Teresa de Mier","city":"Ciudad de México","country":"Mexico","countryCode":"MX","zipcode":"15900","provider":"google"}},{"address":"MIGUEL OTHON DE MENDIZABAL OTE. 343, COL. NUEVA INDUSTRIAL VALLEJO,  ","name":"Red Barn Stores 3877-TORRES  LINDAVISTA","index":14,"pristine":false,"geocode":{"formattedAddress":"Miguel Othón de Mendizabal Ote. 343, Nueva Industrial Vallejo, 07700 Ciudad de México, CDMX, Mexico","latitude":19.5060214,"longitude":-99.1446156,"extra":{"googlePlaceId":"ChIJoZyD3sr50YUR4rGiJHezIC0","confidence":1,"premise":null,"subpremise":null,"neighborhood":"Nueva Industrial Vallejo","establishment":null},"administrativeLevels":{"level1long":"Ciudad de México","level1short":"CDMX"},"streetNumber":"343","streetName":"Miguel Othón de Mendizabal Oriente","city":"Ciudad de México","country":"Mexico","countryCode":"MX","zipcode":"07700","provider":"google"}},{"address":"CALZADA SAN JUAN DE ARAGÓN NO. 516 COLONIA D.M. NACIONAL","name":"Red Barn Stores 4547-EDUARDO MOLINA","index":15,"pristine":false,"geocode":{"formattedAddress":"Calz. San Juan de Aragón 516, DM Nacional, Preparatoria 3, 07455 Ciudad de México, CDMX, Mexico","latitude":19.4788427,"longitude":-99.0969688,"extra":{"googlePlaceId":"ChIJqZJEZtT70YURFuh6UFMd7KM","confidence":1,"premise":null,"subpremise":null,"neighborhood":"DM Nacional","establishment":null},"administrativeLevels":{"level1long":"Ciudad de México","level1short":"CDMX"},"streetNumber":"516","streetName":"Calzada San Juan de Aragón","city":"Ciudad de México","country":"Mexico","countryCode":"MX","zipcode":"07455","provider":"google"}},{"address":"AV. ","name":"Red Barn Stores 2430-COPILCO","index":16,"pristine":false,"geocode":{"formattedAddress":"Province of Avellino, Italy","latitude":40.996451,"longitude":15.1258955,"extra":{"googlePlaceId":"ChIJW3l40s-AORMRYIFimR_hCQM","confidence":0.5,"premise":null,"subpremise":null,"neighborhood":null,"establishment":null},"administrativeLevels":{"level2long":"Province of Avellino","level2short":"AV","level1long":"Campania","level1short":"Campania"},"country":"Italy","countryCode":"IT","provider":"google"}},{"address":"AV. SAN FRANCISCO NO. 1621 COL. DEL VALLE DEL. BENITO JUÁREZ","name":"Red Barn Stores 2689-FELIX CUEVAS","index":17,"pristine":false,"geocode":{"formattedAddress":"San Francisco 1621, Col del Valle Sur, 03100 Ciudad de México, CDMX, Mexico","latitude":19.3726471,"longitude":-99.17604829999999,"extra":{"googlePlaceId":"ChIJ76Xrf5r_0YURxXwXKADPFI4","confidence":1,"premise":null,"subpremise":null,"neighborhood":"Colonia del Valle Sur","establishment":null},"administrativeLevels":{"level1long":"Ciudad de México","level1short":"CDMX"},"streetNumber":"1621","streetName":"San Francisco","city":"Ciudad de México","country":"Mexico","countryCode":"MX","zipcode":"03100","provider":"google"}},{"address":"AV. UNIVERSIDAD NO. 936-A COL. SANTA CRUZ ATOYAC  ","name":"Red Barn Stores 3845-UNIVERSIDAD","index":18,"pristine":false,"geocode":{"formattedAddress":"Avenida Universidad 936-A, Sta Cruz Atoyac, 03310 Ciudad de México, CDMX, Mexico","latitude":19.3686181,"longitude":-99.16416439999999,"extra":{"googlePlaceId":"ChIJi5imR7z_0YURum96s8GLyNc","confidence":1,"premise":null,"subpremise":null,"neighborhood":"Santa Cruz Atoyac","establishment":null},"administrativeLevels":{"level1long":"Ciudad de México","level1short":"CDMX"},"streetNumber":"936-A","streetName":"Avenida Universidad","city":"Ciudad de México","country":"Mexico","countryCode":"MX","zipcode":"03310","provider":"google"}},{"address":"MIGUEL A. DE QUEVEDO NO. 175 COL. CHIMALISTAC","name":"Red Barn Stores 3848-TAXQUEÑA","index":19,"pristine":false,"geocode":{"formattedAddress":"Av. Miguel Ángel de Quevedo #175, Coyoacan, Chimalistac, 04318 Ciudad de México, CDMX, Mexico","latitude":19.3449441,"longitude":-99.1824642,"extra":{"googlePlaceId":"ChIJtUj1ufv_0YURYwMTghltWpc","confidence":0.5,"premise":null,"subpremise":null,"neighborhood":"Chimalistac","establishment":null},"administrativeLevels":{"level1long":"Ciudad de México","level1short":"CDMX"},"city":"Ciudad de México","country":"Mexico","countryCode":"MX","zipcode":"04318","provider":"google"}},{"address":"BLVD. ADOLFO LOPEZ MATEOS NO. 1701 COL. LOMAS DE PLATEROS,","name":"Red Barn Stores 3852-PLATEROS","index":20,"pristine":false,"geocode":{"formattedAddress":"Blvd. Adolfo López Mateos 1701, Lomas de Plateros, 01480 Ciudad de México, CDMX, Mexico","latitude":19.3698112,"longitude":-99.19242559999999,"extra":{"googlePlaceId":"ChIJB7OotScA0oURJzOSvoYis8Q","confidence":1,"premise":null,"subpremise":null,"neighborhood":"Lomas de Plateros","establishment":null},"administrativeLevels":{"level1long":"Ciudad de México","level1short":"CDMX"},"streetNumber":"1701","streetName":"Boulevard Adolfo López Mateos","city":"Ciudad de México","country":"Mexico","countryCode":"MX","zipcode":"01480","provider":"google"}},{"address":"AV. CENTRO COMERCIAL NO. 190 COL. INSURGENTES CUICUILCO","name":"Red Barn Stores 3863-PERIFERICO SUR","index":21,"pristine":false,"geocode":{"formattedAddress":"Av Centro Comercial 190, Insurgentes Cuicuilco, 04530 Ciudad de México, CDMX, Mexico","latitude":19.3062756,"longitude":-99.187272,"extra":{"googlePlaceId":"ChIJ3zQLYnYAzoURgwhEIr3EOYs","confidence":1,"premise":null,"subpremise":null,"neighborhood":"Insurgentes Cuicuilco","establishment":null},"administrativeLevels":{"level1long":"Ciudad de México","level1short":"CDMX"},"streetNumber":"190","streetName":"Avenida Centro Comercial","city":"Ciudad de México","country":"Mexico","countryCode":"MX","zipcode":"04530","provider":"google"}},{"address":"LAS AGUILAS NO. 820 COL. LAS AGUILAS","name":"Red Barn Stores 3876-LAS AGUILAS","index":22,"pristine":false,"geocode":{"formattedAddress":"Calzada de Las Aguilas 820, Las Aguilas, 01710 Álvaro Obregón, CDMX, Mexico","latitude":19.352804,"longitude":-99.21554359999999,"extra":{"googlePlaceId":"ChIJESlbhWsA0oUR9QoVBs4Atqw","confidence":0.5,"premise":null,"subpremise":null,"neighborhood":"Las Aguilas","establishment":null},"administrativeLevels":{"level1long":"Ciudad de México","level1short":"CDMX"},"city":"Álvaro Obregón","country":"Mexico","countryCode":"MX","zipcode":"01710","provider":"google"}},{"address":"AV. EL ROSARIO NO. 1025","name":"Red Barn Stores 1580-EL ROSARIO","index":23,"pristine":false,"geocode":{"formattedAddress":"Av El Rosario 1025, El Rosario, 02100 Ciudad de México, CDMX, Mexico","latitude":19.503046,"longitude":-99.2033412,"extra":{"googlePlaceId":"ChIJEYi6db0C0oUREsJoHhb1z5c","confidence":1,"premise":null,"subpremise":null,"neighborhood":"El Rosario","establishment":null},"administrativeLevels":{"level1long":"Ciudad de México","level1short":"CDMX"},"streetNumber":"1025","streetName":"Avenida El Rosario","city":"Ciudad de México","country":"Mexico","countryCode":"MX","zipcode":"02100","provider":"google"}},{"address":"AV. CANAL DE TEZONTLE NO. 1520 COL. DR. ALFONSO ORTIZ TIRADO","name":"Red Barn Stores 2033-PLAZA ORIENTE","index":24,"pristine":false,"geocode":{"formattedAddress":"Av Canal de Tezontle 1520, Iztapalapa, 09020 Ciudad de México, CDMX, Mexico","latitude":19.3834641,"longitude":-99.0796166,"extra":{"googlePlaceId":"ChIJiTqFfsn90YURLuMOMdD7YrA","confidence":1,"premise":null,"subpremise":null,"neighborhood":"Iztapalapa","establishment":null},"administrativeLevels":{"level1long":"Ciudad de México","level1short":"CDMX"},"streetNumber":"1520","streetName":"Avenida Canal de Tezontle","city":"Ciudad de México","country":"Mexico","countryCode":"MX","zipcode":"09020","provider":"google"}},{"address":"CAÑAVERALES #222 COL.GRANJAS COAPA","name":"Red Barn Stores 1460-CUEMANCO","index":25,"pristine":false,"geocode":{"formattedAddress":"Cañaverales 222, Granjas Coapa, 14330 Ciudad de México, CDMX, Mexico","latitude":19.2950983,"longitude":-99.1090662,"extra":{"googlePlaceId":"ChIJqRJGUIIBzoURDpVd6WIfgC0","confidence":1,"premise":null,"subpremise":null,"neighborhood":"Granjas Coapa","establishment":null},"administrativeLevels":{"level1long":"Ciudad de México","level1short":"CDMX"},"streetNumber":"222","streetName":"Cañaverales","city":"Ciudad de México","country":"Mexico","countryCode":"MX","zipcode":"14330","provider":"google"}},{"address":"BLVD. MAGNOCENTRO NO. 35, LOTE 1, MANZANA II, COL  BOSQUES DE LAS PALMAS, HUIXQUILUCAN, EDO. DE MEXICO,","name":"Red Barn Stores 2382-INTERLOMAS","index":26,"pristine":false,"geocode":{"formattedAddress":"35, Blvd. Magnocentro MZ II L 1, Bosque de las Palmas, 52787 Naucalpan de Juárez, Méx., Mexico","latitude":19.403484,"longitude":-99.27184840000001,"extra":{"googlePlaceId":"EmEzNSwgQmx2ZC4gTWFnbm9jZW50cm8gTVogSUkgTCAxLCBCb3NxdWUgZGUgbGFzIFBhbG1hcywgNTI3ODcgTmF1Y2FscGFuIGRlIEp1w6FyZXosIE3DqXguLCBNw6l4aWNv","confidence":1,"premise":null,"subpremise":"35","neighborhood":"Bosque de las Palmas","establishment":null},"administrativeLevels":{"level1long":"Estado de México","level1short":"Méx."},"streetNumber":"MZ II L 1","streetName":"Boulevard Magnocentro","city":"Naucalpan de Juárez","country":"Mexico","countryCode":"MX","zipcode":"52787","provider":"google"}},{"address":"BLVD. PASEO INTERLOMAS # 5","name":"Red Barn Stores 3504-AV. JESUS DEL MONTE","index":27,"pristine":false,"geocode":{"formattedAddress":"Paseo Interlomas, Blvrd. Interlomas 5, Bosque de las Palmas, 52786 Huixquilucan, Méx., Mexico","latitude":19.3988905,"longitude":-99.2827938,"extra":{"googlePlaceId":"ChIJO9B6tssG0oURGXIWKC-VUyk","confidence":0.5,"premise":null,"subpremise":null,"neighborhood":"Bosque de las Palmas","establishment":"Paseo Interlomas"},"administrativeLevels":{"level1long":"Estado de México","level1short":"Méx."},"streetNumber":"5","streetName":"Boulevard Interlomas","city":"Huixquilucan","country":"Mexico","countryCode":"MX","zipcode":"52786","provider":"google"}},{"address":"PASEO TOLLOCAN NO. 600 COL. SECTOR PROGRESO, ","name":"Red Barn Stores 2343-TOLUCA","index":28,"pristine":false,"geocode":{"formattedAddress":"Av. Paseo Tollocan 600, Sector Progreso, Progreso, 50150 Toluca de Lerdo, Méx., Mexico","latitude":19.2809725,"longitude":-99.63936919999999,"extra":{"googlePlaceId":"ChIJa0Kjyo6JzYURBd1Yi2JnK8M","confidence":0.5,"premise":null,"subpremise":null,"neighborhood":"Sector Progreso","establishment":null},"administrativeLevels":{"level1long":"Estado de México","level1short":"Méx."},"streetNumber":"600","streetName":"Avenida Paseo Tollocan","city":"Toluca de Lerdo","country":"Mexico","countryCode":"MX","zipcode":"50150","provider":"google"}},{"address":"AV. BAJA VELOCIDAD NO. 1201 ORIENTE,","name":"Red Barn Stores 3263-PILARES","index":29,"pristine":false,"geocode":{"formattedAddress":"Av. Baja Velocidad 1201 Oriente, San Jerónimo Chicahualco, Av Baja Velocidad 1201, San Jeronimo Chicahualco, 52179 Metepec, Méx., Mexico","latitude":19.2857993,"longitude":-99.5911919,"extra":{"googlePlaceId":"ChIJX4jRy1iKzYURDfvCCqg2gK8","confidence":0.5,"premise":null,"subpremise":null,"neighborhood":"San Jeronimo Chicahualco","establishment":null},"administrativeLevels":{"level1long":"Estado de México","level1short":"Méx."},"streetNumber":"1201","streetName":"Avenida Baja Velocidad","city":"Metepec","country":"Mexico","countryCode":"MX","zipcode":"52179","provider":"google"}},{"address":"LEONA VICARIO NO. 502, COL LA PURISIMA,","name":"Red Barn Stores 3790-METEPEC","index":30,"pristine":false,"geocode":{"formattedAddress":"Av Leona Vicario 502, La Asuncion, Metepec, Méx., Mexico","latitude":19.2615158,"longitude":-99.6172362,"extra":{"googlePlaceId":"EjpBdiBMZW9uYSBWaWNhcmlvIDUwMiwgTGEgQXN1bmNpb24sIE1ldGVwZWMsIE3DqXguLCBNw6l4aWNv","confidence":0.9,"premise":null,"subpremise":null,"neighborhood":"La Asuncion","establishment":null},"administrativeLevels":{"level1long":"Estado de México","level1short":"Méx."},"streetNumber":"502","streetName":"Avenida Leona Vicario","city":"Metepec","country":"Mexico","countryCode":"MX","provider":"google"}},{"address":"VIALIDAD TOLUCA-NAUCALPAN NO. 1101, SAN MATEO OTZACATIPAN,TOLUCA EDO. MEX.","name":"Red Barn Stores 5702-SANTIN ","index":31,"pristine":false},{"address":"BOULEVARD ADOLFO LÓPEZ MATEOS NO. 117 COL. OJUELOS ZINACANTEPEC","name":"Red Barn Stores 5791-ZINACANTEPEC","index":32,"pristine":false,"geocode":{"formattedAddress":"Lic. Adolfo López Mateos 117, Ojuelos, 51356 San Miguel Zinacantepec, Méx., Mexico","latitude":19.288989,"longitude":-99.69975900000001,"extra":{"googlePlaceId":"ChIJk8-syz-IzYURpYl_elu8wic","confidence":1,"premise":null,"subpremise":null,"neighborhood":"Ojuelos","establishment":null},"administrativeLevels":{"level1long":"Estado de México","level1short":"Méx."},"streetNumber":"117","streetName":"Licenciado Adolfo López Mateos","city":"San Miguel Zinacantepec","country":"Mexico","countryCode":"MX","zipcode":"51356","provider":"google"}},{"address":"BOULEVARD ALFREDO DEL MAZO NO. 503 COL. JARDINES DE TLA","name":"Red Barn Stores 5825-ALFREDO DEL MAZO","index":33,"pristine":false,"geocode":{"formattedAddress":"Boulevard Alfredo del Mazo NO. 503, COL. Jardines DE Tlacopa, 50071 Toluca de Lerdo, Méx., Mexico","latitude":19.3080052,"longitude":-99.634326,"extra":{"googlePlaceId":"ChIJq8QzUv-JzYURI8WoOrnVOwc","confidence":0.5,"premise":null,"subpremise":null,"neighborhood":null,"establishment":null},"administrativeLevels":{"level1long":"Estado de México","level1short":"Méx."},"city":"Toluca de Lerdo","country":"Mexico","countryCode":"MX","zipcode":"50071","provider":"google"}},{"address":"AV. CHALMA NO. 281 COL. JARDINES DE LA HACIENDA, CUAUTITLAN IZCALLI, EDO. DE MEX.","name":"Red Barn Stores 1044-SAN MARCOS IZCALLI","index":34,"pristine":false,"geocode":{"formattedAddress":"Av Chalma 281, Jardines de la Hacienda, 54720 Cuautitlán Izcalli, Méx., Mexico","latitude":19.6711911,"longitude":-99.2048739,"extra":{"googlePlaceId":"ChIJ_6g5Icwf0oUR9Rx9UamIwkM","confidence":1,"premise":null,"subpremise":null,"neighborhood":"Jardines de la Hacienda","establishment":null},"administrativeLevels":{"level1long":"Estado de México","level1short":"Méx."},"streetNumber":"281","streetName":"Avenida Chalma","city":"Cuautitlán Izcalli","country":"Mexico","countryCode":"MX","zipcode":"54720","provider":"google"}},{"address":"CARRETERA CUAUTITLAN-TULTEPEC NO. 2","name":"Red Barn Stores 1423-SANTA ELENA","index":35,"pristine":false,"geocode":{"formattedAddress":"Carretera Cuautitlán-Tultepec 2, Terremoto, 54850 Cuautitlán, Méx., Mexico","latitude":19.6774687,"longitude":-99.1482123,"extra":{"googlePlaceId":"ChIJCbNidAP10YURXYZrVAS2PlI","confidence":0.5,"premise":null,"subpremise":null,"neighborhood":"Terremoto","establishment":null},"administrativeLevels":{"level1long":"Estado de México","level1short":"Méx."},"city":"Cuautitlán","country":"Mexico","countryCode":"MX","zipcode":"54850","provider":"google"}},{"address":"AV. CUAUTITLÁN IZCALLI S/N","name":"Red Barn Stores 1834-PLAZA DEL LAGO","index":36,"pristine":false,"geocode":{"formattedAddress":"Av. Tejocotes S/N Agave 1 -D, San Martín Obispo Tepetlixpa, 54763 Cuautitlán Izcalli, Méx., Mexico","latitude":19.6067733,"longitude":-99.2141351,"extra":{"googlePlaceId":"ChIJtZH3P2b40YURi59cXQlPSqw","confidence":0.5,"premise":null,"subpremise":null,"neighborhood":"San Martín Obispo Tepetlixpa","establishment":null},"administrativeLevels":{"level1long":"Estado de México","level1short":"Méx."},"city":"Cuautitlán Izcalli","country":"Mexico","countryCode":"MX","zipcode":"54763","provider":"google"}},{"address":"Paseo San Buenaventura No. 15,","name":"La Tienda Especiál 1001-San Buenaventura","index":37,"pristine":false,"geocode":{"formattedAddress":"15 Buena Vista Terrace, San Francisco, CA 94117, USA","latitude":37.7687934,"longitude":-122.4381159,"extra":{"googlePlaceId":"ChIJIU6O_6iAhYARfSBMeeHzlas","confidence":1,"premise":null,"subpremise":null,"neighborhood":"The Castro","establishment":null},"administrativeLevels":{"level2long":"San Francisco County","level2short":"San Francisco County","level1long":"California","level1short":"CA"},"streetNumber":"15","streetName":"Buena Vista Terrace","city":"San Francisco","country":"United States","countryCode":"US","zipcode":"94117","provider":"google"}},{"address":"BLVD. ARTURO MONTIEL ROJAS KM 10+700","name":"Red Barn Stores 2643-NICOLAS ROMERO","index":38,"pristine":false},{"address":"VIA JOSE LOPEZ PORTILLO NO 101. COL. ZACUAUTITLA,","name":"Red Barn Stores 3900-COACALCO","index":39,"pristine":false,"geocode":{"formattedAddress":"Av José Lopez Portillo 206, Col. Zacuautitla, Zacuauhtitla, 55700 San Francisco Coacalco, Méx., Mexico","latitude":19.6336819,"longitude":-99.0971545,"extra":{"googlePlaceId":"ChIJ78_Gj_nz0YURpW_6Hv7_hSM","confidence":0.5,"premise":null,"subpremise":null,"neighborhood":"Col. Zacuautitla","establishment":null},"administrativeLevels":{"level1long":"Estado de México","level1short":"Méx."},"city":"San Francisco Coacalco","country":"Mexico","countryCode":"MX","zipcode":"55700","provider":"google"}},{"address":"VÍA JOSÉ LÓPEZ PORTILLO NO. 2 COL. SAN FRANCISCO COACALCO,","name":"Red Barn Stores 4018-SANTA MARÍA COACALCO","index":40,"pristine":false,"geocode":{"formattedAddress":"Av José López Portillo 2, Villa de las Flores, 55710 San Francisco Coacalco, Méx., Mexico","latitude":19.636588,"longitude":-99.0974949,"extra":{"googlePlaceId":"ChIJJ9claffz0YURSnywKXZ1vH4","confidence":1,"premise":null,"subpremise":null,"neighborhood":"Villa de las Flores","establishment":null},"administrativeLevels":{"level1long":"Estado de México","level1short":"Méx."},"streetNumber":"2","streetName":"Avenida José López Portillo","city":"San Francisco Coacalco","country":"Mexico","countryCode":"MX","zipcode":"55710","provider":"google"}},{"address":"Avenida Cruz de la Misión #8 San JuanTeotihuacán, Edo de Méx","name":"La Tienda Especiál 1002-Teotihuacán","index":41,"pristine":false,"geocode":{"formattedAddress":"Cruz de La Misión 8, Teotihuacan Centro, 55800 San Juan Teotihuacan de Arista, Méx., Mexico","latitude":19.6825903,"longitude":-98.8688944,"extra":{"googlePlaceId":"ChIJE5u8_ffq0YURBEqH3PnkIW0","confidence":1,"premise":null,"subpremise":null,"neighborhood":"Teotihuacan Centro","establishment":null},"administrativeLevels":{"level1long":"Estado de México","level1short":"Méx."},"streetNumber":"8","streetName":"Cruz de La Misión","city":"San Juan Teotihuacan de Arista","country":"Mexico","countryCode":"MX","zipcode":"55800","provider":"google"}},{"address":"AV. HIDALGO S/N  COL. INDUSTRIAL TLAXCOLPAN","name":"Red Barn Stores 2041-TOLTECAS","index":42,"pristine":false,"geocode":{"formattedAddress":"Avenida Hidalgo, Industrial Tlaxcolpan, 54030 Tlalnepantla, Méx., Mexico","latitude":19.5506943,"longitude":-99.19396719999999,"extra":{"googlePlaceId":"EkpBdmVuaWRhIEhpZGFsZ28sIEluZHVzdHJpYWwgVGxheGNvbHBhbiwgNTQwMzAgVGxhbG5lcGFudGxhLCBNw6l4LiwgTcOpeGljbw","confidence":0.7,"premise":null,"subpremise":null,"neighborhood":"Industrial Tlaxcolpan","establishment":null},"administrativeLevels":{"level1long":"Estado de México","level1short":"Méx."},"streetName":"Avenida Hidalgo","city":"Tlalnepantla","country":"Mexico","countryCode":"MX","zipcode":"54030","provider":"google"}},{"address":"Vía Doctor Jorge Jimenez Cantu S/N Col. Plaza Del Condado","name":"SuperStore 3849-ESMERALDA","index":43,"pristine":false},{"address":"SUPER CARRETERA LOMAS VERDES NO. 1200 VI SECCIÓN LOMAS VERDES; NAUCALPAN, ED. MEXICO","name":"Red Barn Stores 1032-LOMAS VERDES","index":44,"pristine":false,"geocode":{"formattedAddress":"Super Carretera Lomas Verdes No. 1200, Lomas Verdes VI, 53120 Naucalpan de Juárez, Méx., Mexico","latitude":19.5160237,"longitude":-99.2678327,"extra":{"googlePlaceId":"ChIJJ6wwckYD0oURVdtqM01BNEU","confidence":0.5,"premise":null,"subpremise":null,"neighborhood":"Lomas Verdes VI","establishment":null},"administrativeLevels":{"level1long":"Estado de México","level1short":"Méx."},"city":"Naucalpan de Juárez","country":"Mexico","countryCode":"MX","zipcode":"53120","provider":"google"}},{"address":"AV. DR. JORGE JIMENEZ CANTU SN,","name":"Red Barn Stores 1584-ESPACIO ESMERALDA","index":45,"pristine":false,"geocode":{"formattedAddress":"Av. Dr. Jorge Jimenez Cantu SN Plaza La Antigua Local 9, Hacienda de Vallescondido, Plaza Praga, 52937 Cd López Mateos, Méx., Mexico","latitude":19.572467,"longitude":-99.302137,"extra":{"googlePlaceId":"ChIJv5H-IaIb0oUR917Pu9B8L5Y","confidence":0.5,"premise":null,"subpremise":null,"neighborhood":"Hacienda de Vallescondido","establishment":null},"administrativeLevels":{"level1long":"Estado de México","level1short":"Méx."},"city":"Ciudad López Mateos","country":"Mexico","countryCode":"MX","zipcode":"52937","provider":"google"}},{"address":"CIRCUITO 19 METALURGISTAS NO. 2 CD. SATELITE ","name":"Red Barn Stores 3847-SATELITE","index":46,"pristine":false,"geocode":{"formattedAddress":"Circuito Centro Comercial 19, Ciudad Satélite, 19850 Naucalpan de Juárez, Méx., Mexico","latitude":19.5154998,"longitude":-99.2311082,"extra":{"googlePlaceId":"ChIJ1QvlJdYC0oURSr3WoNNr6LU","confidence":0.5,"premise":null,"subpremise":null,"neighborhood":"Ciudad Satélite","establishment":null},"administrativeLevels":{"level1long":"Estado de México","level1short":"Méx."},"city":"Naucalpan de Juárez","country":"Mexico","countryCode":"MX","zipcode":"19850","provider":"google"}},{"address":"EMILIANO ZAPATA NO 7  COL. SANTA MARÍA NATIVITAS","name":"Red Barn Stores 3850-ECHEGARAY","index":47,"pristine":false,"geocode":{"formattedAddress":"Hda. de Emiliano Zapata 7, Bosques de Echegaray, 53020 Naucalpan de Juárez, Méx., Mexico","latitude":19.4847274,"longitude":-99.23283269999999,"extra":{"googlePlaceId":"ChIJIS6rDP0C0oURiPOOvxJy3is","confidence":1,"premise":null,"subpremise":null,"neighborhood":"Bosques de Echegaray","establishment":null},"administrativeLevels":{"level1long":"Estado de México","level1short":"Méx."},"streetNumber":"7","streetName":"Hda. de Emiliano Zapata","city":"Naucalpan de Juárez","country":"Mexico","countryCode":"MX","zipcode":"53020","provider":"google"}},{"address":"BLVD. MANUEL AVILA CAMACHO NO. 2550  FRACC. LOS PIRULES ","name":"Red Barn Stores 3854-PIRULES","index":48,"pristine":false,"geocode":{"formattedAddress":"Perif. Blvd. Manuel Ávila Camacho 2550, Hab los Pirules, 54050 Tlalnepantla, Méx., Mexico","latitude":19.5429768,"longitude":-99.2137219,"extra":{"googlePlaceId":"ChIJvWU0FD8d0oURSLfAOdYR-7k","confidence":1,"premise":null,"subpremise":null,"neighborhood":"Habitacional los Pirules","establishment":null},"administrativeLevels":{"level1long":"Estado de México","level1short":"Méx."},"streetNumber":"2550","streetName":"Periférico Boulevard Manuel Ávila Camacho","city":"Tlalnepantla","country":"Mexico","countryCode":"MX","zipcode":"54050","provider":"google"}},{"address":"AUTOPISTA  MEXICO-QUERETARO NO. 3985 COL. CENTRO INDUSTRIAL TLALNEPANTLA","name":"Red Barn Stores 1169-MULTIPLAZA ARBOLEDAS","index":49,"pristine":false,"geocode":{"formattedAddress":"Autopista México - Querétaro 3985, Centro Industrial Tlalnepantla, 54030 Tlalnepantla, Méx., Mexico","latitude":19.5470374,"longitude":-99.20928529999999,"extra":{"googlePlaceId":"ChIJlT9Di0Ed0oUR8SRTDaZiCyI","confidence":1,"premise":null,"subpremise":null,"neighborhood":"Centro Industrial Tlalnepantla","establishment":null},"administrativeLevels":{"level1long":"Estado de México","level1short":"Méx."},"streetNumber":"3985","streetName":"Autopista México - Querétaro","city":"Tlalnepantla","country":"Mexico","countryCode":"MX","zipcode":"54030","provider":"google"}},{"address":"PASEO DE LAS PALOMAS NO. 25 FRACC. LAS ALAMEDAS MUNI","name":"Red Barn Stores 5855-LAS ALAMEDAS","index":50,"pristine":false},{"address":"CARRETERA FEDERAL MEXICO -CUAULA # 166","name":"Red Barn Stores 1683-VICENTE GUERRERO","index":51,"pristine":false,"geocode":{"formattedAddress":"Carr Federal Cuautla-México 166, San Gregorio Cuautzingo, 56600 Chalco de Díaz Covarrubias, Méx., Mexico","latitude":19.2613006,"longitude":-98.8780544,"extra":{"googlePlaceId":"ChIJ_br8Q84YzoUR5WgPM0L8_ik","confidence":0.5,"premise":null,"subpremise":null,"neighborhood":"San Gregorio Cuautzingo","establishment":null},"administrativeLevels":{"level1long":"Estado de México","level1short":"Méx."},"streetNumber":"166","streetName":"Carretera Federal Cuautla-México","city":"Chalco de Díaz Covarrubias","country":"Mexico","countryCode":"MX","zipcode":"56600","provider":"google"}},{"address":"AV. INGENIEROS NO. 370 MANZANA 1855 LOTE 02","name":"Red Barn Stores 1202-HORIZONTE","index":52,"pristine":false},{"address":"HIDALGO NO. 300,","name":"Red Barn Stores 1489-HIPERPLAZA TEXCOCO","index":53,"pristine":false,"geocode":{"formattedAddress":"Blvd. Miguel Hidalgo 300, Longoria, 88520 Reynosa, Tamps., Mexico","latitude":26.0852849,"longitude":-98.29263209999999,"extra":{"googlePlaceId":"ChIJlRDQpkwPZYYRdBN4OThDshQ","confidence":1,"premise":null,"subpremise":null,"neighborhood":"Longoria","establishment":null},"administrativeLevels":{"level1long":"Tamaulipas","level1short":"Tamps."},"streetNumber":"300","streetName":"Boulevard Miguel Hidalgo","city":"Reynosa","country":"Mexico","countryCode":"MX","zipcode":"88520","provider":"google"}},{"address":"José Ma. Pino Suarez No. 52  Los Heroes Tecamac , Tecamac Edo de Mex ","name":"La Tienda Especiál 1008-Héroes Tecamac","index":54,"pristine":false,"geocode":{"formattedAddress":"Av. José María Pino Suárez 52, Col. Héroes de Tecamac, Ciudad de México, Méx., Mexico","latitude":19.6205242,"longitude":-99.02206770000001,"extra":{"googlePlaceId":"ChIJdy4POfrx0YURSNqszrWVghE","confidence":1,"premise":null,"subpremise":null,"neighborhood":"Colonia Héroes de Tecamac","establishment":null},"administrativeLevels":{"level1long":"Estado de México","level1short":"Méx."},"streetNumber":"52","streetName":"Avenida José María Pino Suárez","city":"Ciudad de México","country":"Mexico","countryCode":"MX","provider":"google"}},{"address":"AV. BORDO DE XOCHIACA NO. 3 LT -A2  COL. BENITO JUÁREZ ","name":"Red Barn Stores 2079-CD. JARDIN","index":55,"pristine":false},{"address":"AV. CENTRAL NO 120, LOCAL 62 AL 68 Y 118, COL. RINCONADA DE ARAGON, ECATEPEC ESTADO DE ME XICO,","name":"Red Barn Stores 3005-PLAZA ARAGON","index":56,"pristine":false},{"address":"CARRETERA FEDERAL MEXICO TEXCOCO KM 30.5   COL. SANTIAGO CUAUTLALPAN     TEXCOCO ESTADO DE MEXICO   ","name":"Red Barn Stores 4109-PUERTA TEXCOCO","index":57,"pristine":false,"geocode":{"formattedAddress":"Carretera Federal México-Texcoco 30, Santiago Cuautlalpan, 56259 Santiago Cuautlalpan, Méx., Mexico","latitude":19.4310651,"longitude":-98.90853800000001,"extra":{"googlePlaceId":"EmZDYXJyZXRlcmEgRmVkZXJhbCBNw6l4aWNvLVRleGNvY28gMzAsIFNhbnRpYWdvIEN1YXV0bGFscGFuLCA1NjI1OSBTYW50aWFnbyBDdWF1dGxhbHBhbiwgTcOpeC4sIE3DqXhpY28","confidence":0.9,"premise":null,"subpremise":null,"neighborhood":"Santiago Cuautlalpan","establishment":null},"administrativeLevels":{"level1long":"Estado de México","level1short":"Méx."},"streetNumber":"30","streetName":"Carretera Federal México-Texcoco","city":"Santiago Cuautlalpan","country":"Mexico","countryCode":"MX","zipcode":"56259","provider":"google"}},{"address":"AUT. MÉXICO-QUERÉTARO KM.  36.5 LTE. 1 COL. PARQUE INDUSTRIAL CUAMATLA,","name":"Red Barn Stores 4157-PERIFÉRICO CUAUTITLAN","index":58,"pristine":false,"geocode":{"formattedAddress":"Autopista Mexico-Queretaro Km. 36.5 Lte 1, Parque Industrial Cuamatla, 54750 Cuautitlán Izcalli, Méx., Mexico","latitude":19.6468257,"longitude":-99.19491909999999,"extra":{"googlePlaceId":"ChIJwf0JWyEe0oURhAbdhejUHxg","confidence":0.5,"premise":null,"subpremise":null,"neighborhood":"Parque Industrial Cuamatla","establishment":null},"administrativeLevels":{"level1long":"Estado de México","level1short":"Méx."},"city":"Cuautitlán Izcalli","country":"Mexico","countryCode":"MX","zipcode":"54750","provider":"google"}},{"address":"RIO LERMA NO. 5","name":"Red Barn Stores 1462-LERMA TOLUCA","index":59,"pristine":false,"geocode":{"formattedAddress":"Río Lerma 5, San Jose Rio Hondo, 53810 Naucalpan de Juárez, Méx., Mexico","latitude":19.4365212,"longitude":-99.25197039999999,"extra":{"googlePlaceId":"ChIJbxb6i9wD0oURT3lz75V3Gvo","confidence":1,"premise":null,"subpremise":null,"neighborhood":"San Jose Rio Hondo","establishment":null},"administrativeLevels":{"level1long":"Estado de México","level1short":"Méx."},"streetNumber":"5","streetName":"Río Lerma","city":"Naucalpan de Juárez","country":"Mexico","countryCode":"MX","zipcode":"53810","provider":"google"}},{"address":"CARRETERA FEDERAL MÉXICO - PACHUCA  KM  36.5   COL. HUEYOTENCO   TECÁMAC, EDO. DE MEX ","name":"Red Barn Stores 1171-SAN JOSE TECAMC","index":60,"pristine":false,"geocode":{"formattedAddress":"Carretera Federal México-Pachuca Km 36.5, Tecamac Power Center, Hueyotenco, 55749 Tecámac de Felipe Villanueva, Méx., Mexico","latitude":19.6991435,"longitude":-98.9799412,"extra":{"googlePlaceId":"ChIJX7OAuE2S0YURXrmv6YVzqos","confidence":0.5,"premise":null,"subpremise":null,"neighborhood":"Hueyotenco","establishment":"Tecamac Power Center"},"administrativeLevels":{"level1long":"Estado de México","level1short":"Méx."},"city":"Tecámac de Felipe Villanueva","country":"Mexico","countryCode":"MX","zipcode":"55749","provider":"google"}},{"address":"AVE. CARLOS HANK GONZALEZ S/N","name":"Red Barn Stores 1203-SUPER PLAZA ECATEPEC","index":61,"pristine":false,"geocode":{"formattedAddress":"Av. Carlos Hank González S/N, Col. Fraccionamiento Bosques de Aragón, 57170 Nezahualcóyotl, MEX, Mexico","latitude":19.4691349,"longitude":-99.0554183,"extra":{"googlePlaceId":"ChIJlehf6gnw0YURFv7FildDYD8","confidence":0.5,"premise":null,"subpremise":null,"neighborhood":"Col. Fraccionamiento Bosques de Aragón","establishment":null},"administrativeLevels":{"level1long":"MEX","level1short":"MEX"},"city":"Nezahualcóyotl","country":"Mexico","countryCode":"MX","zipcode":"57170","provider":"google"}},{"address":"Carretera Federal Mexico-Puebla KM 27.5 N° 6,","name":"La Tienda Especiál 1109-Ayotla","index":62,"pristine":false,"geocode":{"formattedAddress":"Carr Federal México-Puebla Km. 27.5 No. 6, Emiliano Zapata, 56560 Ixtapaluca, Méx., Mexico","latitude":19.3108844,"longitude":-98.92513799999999,"extra":{"googlePlaceId":"ChIJwSlTzNcdzoURVi5mR1oANjA","confidence":1,"premise":null,"subpremise":null,"neighborhood":"Emiliano Zapata","establishment":null},"administrativeLevels":{"level1long":"Estado de México","level1short":"Méx."},"streetNumber":"Km. 27.5 No. 6","streetName":"Carretera Federal México-Puebla","city":"Ixtapaluca","country":"Mexico","countryCode":"MX","zipcode":"56560","provider":"google"}},{"address":"Calle 8 No. 1 Col. Viveros Del Valle","name":"SuperStore 3826-VIVEROS","index":63,"pristine":false,"geocode":{"formattedAddress":"Plaza Viveros del Valle, Rtno. 8 Blvd. a Queretaro 1, Habit.viveros del Valle, Hab Viveros del Valle, 54080 Tlalnepantla, Méx., Mexico","latitude":19.5315566,"longitude":-99.2199407,"extra":{"googlePlaceId":"ChIJOxbqAzEd0oURDrwyxdQ0Atw","confidence":0.5,"premise":null,"subpremise":null,"neighborhood":"Habit.viveros del Valle","establishment":"Plaza Viveros del Valle"},"administrativeLevels":{"level1long":"Estado de México","level1short":"Méx."},"streetNumber":"1","streetName":"Retorno 8 Boulevard a Queretaro","city":"Tlalnepantla","country":"Mexico","countryCode":"MX","zipcode":"54080","provider":"google"}},{"address":"Av. Lomas Verdes No. 545 Col. Lomas Verdes","name":"SuperStore 3838-LOMAS VERDES","index":64,"pristine":false,"geocode":{"formattedAddress":"Avenida Lomas Verdes 545, Lomas Verdes, 53120 Naucalpan de Juárez, Méx., Mexico","latitude":19.5068148,"longitude":-99.2605344,"extra":{"googlePlaceId":"ChIJ_ekfRUYD0oUR-OcXL6I2FGs","confidence":1,"premise":null,"subpremise":null,"neighborhood":"Lomas Verdes","establishment":null},"administrativeLevels":{"level1long":"Estado de México","level1short":"Méx."},"streetNumber":"545","streetName":"Avenida Lomas Verdes","city":"Naucalpan de Juárez","country":"Mexico","countryCode":"MX","zipcode":"53120","provider":"google"}},{"address":"Av. De Las Fuentes No. 174 Col. Lomas De Tecamachalco","name":"SuperStore 3815-TECAMACHALCO","index":65,"pristine":false,"geocode":{"formattedAddress":"Av de las Fuentes 174, Lomas de Tecamachalco, 53950 Naucalpan de Juárez, Méx., Mexico","latitude":19.4222289,"longitude":-99.2374012,"extra":{"googlePlaceId":"ChIJqbWkLHkB0oUR_KMrmfeABfA","confidence":1,"premise":null,"subpremise":null,"neighborhood":"Lomas de Tecamachalco","establishment":null},"administrativeLevels":{"level1long":"Estado de México","level1short":"Méx."},"streetNumber":"174","streetName":"Avenida de las Fuentes","city":"Naucalpan de Juárez","country":"Mexico","countryCode":"MX","zipcode":"53950","provider":"google"}},{"address":"Av. Vía Morelos Km21 No.172 Colonia Laureles","name":"La Tienda Especiál 1110-Plaza Ecatepec","index":66,"pristine":false,"geocode":{"formattedAddress":"172, Av. Via Morelos 21, Cuauhtemoc Xalostoc, 55310 Ecatepec de Morelos, Méx., Mexico","latitude":19.5311676,"longitude":-99.07195209999999,"extra":{"googlePlaceId":"ElcxNzIsIEF2LiBWaWEgTW9yZWxvcyAyMSwgQ3VhdWh0ZW1vYyBYYWxvc3RvYywgNTUzMTAgRWNhdGVwZWMgZGUgTW9yZWxvcywgTcOpeC4sIE3DqXhpY28","confidence":1,"premise":null,"subpremise":"172","neighborhood":"Cuauhtemoc Xalostoc","establishment":null},"administrativeLevels":{"level1long":"Estado de M��xico","level1short":"Méx."},"streetNumber":"21","streetName":"Avenida Via Morelos","city":"Ecatepec de Morelos","country":"Mexico","countryCode":"MX","zipcode":"55310","provider":"google"}},{"address":"AV. RIO DE LOS REMEDIOS N°. 5 COL. EXRANCHO PUEBLODE SAN JUAN IXHUATEPEC, TLALNEPANTLA, ESTADO DE MÉXICO","name":"Red Barn Stores 5469-RÍO DE LOS REMEDIOS","index":67,"pristine":false},{"address":"PROLONGACION VASCO DE QUIROGA No. 3800, SANTA FE CUAJIMALPA, CUAJIMALPA DE MORELOS, DISTRITO FEDERAL, ","name":"KAYCHEE 98-Santa Fe","index":68,"pristine":false,"geocode":{"formattedAddress":"Av. Vasco de Quiroga 3800, Santa Fe, Cuajimalpa, 05109 Ciudad de México, CDMX, Mexico","latitude":19.3612111,"longitude":-99.27218049999999,"extra":{"googlePlaceId":"ChIJ_9X5TckA0oUR89H5e6vtcR4","confidence":1,"premise":null,"subpremise":null,"neighborhood":"Santa Fe","establishment":null},"administrativeLevels":{"level1long":"Ciudad de México","level1short":"CDMX"},"streetNumber":"3800","streetName":"Avenida Vasco de Quiroga","city":"Ciudad de México","country":"Mexico","countryCode":"MX","zipcode":"05109","provider":"google"}},{"address":"BOULEVARD MANUEL AVILA CAMACHO NO.5, LOMAS DE SOTELO, NAUCALPAN DE JUAREZ, ESTADO DE MEXICO, ","name":"KAYCHEE 106-Toreo","index":69,"pristine":false,"geocode":{"formattedAddress":"Blvrd Manuel Ávila Camacho 5, Lomas de Sotelo, 53390 Naucalpan de Juárez, Méx., Mexico","latitude":19.4545872,"longitude":-99.2187811,"extra":{"googlePlaceId":"ChIJxa83PEcC0oURngW1oG8My5U","confidence":1,"premise":null,"subpremise":null,"neighborhood":"Lomas de Sotelo","establishment":null},"administrativeLevels":{"level1long":"Estado de México","level1short":"Méx."},"streetNumber":"5","streetName":"Boulevard Manuel Ávila Camacho","city":"Naucalpan de Juárez","country":"Mexico","countryCode":"MX","zipcode":"53390","provider":"google"}},{"address":"CALZ. SAN ESTEBAN NO. 46","name":"KAYCHEE 117-UN-San Esteban","index":70,"pristine":false,"geocode":{"formattedAddress":"Calz. San Esteban 46, San Esteban, 53768 Naucalpan de Juárez, Méx., Mexico","latitude":19.4587574,"longitude":-99.2338508,"extra":{"googlePlaceId":"ChIJNf0ORrMD0oUR3aalaptFI5g","confidence":1,"premise":null,"subpremise":null,"neighborhood":"San Esteban","establishment":null},"administrativeLevels":{"level1long":"Estado de México","level1short":"Méx."},"streetNumber":"46","streetName":"Calzada San Esteban","city":"Naucalpan de Juárez","country":"Mexico","countryCode":"MX","zipcode":"53768","provider":"google"}},{"address":"BUEN TONO NO. 8","name":"KAYCHEE 129-Un-Buen Tono","index":71,"pristine":false,"geocode":{"formattedAddress":"Buen Tono 8, Colonia Centro, Centro, 06000 Centro, CDMX, Mexico","latitude":19.4289069,"longitude":-99.1432456,"extra":{"googlePlaceId":"ChIJ-U9Mt9X-0YURdYX9YdLi07s","confidence":1,"premise":null,"subpremise":null,"neighborhood":"Colonia Centro","establishment":null},"administrativeLevels":{"level1long":"Ciudad de México","level1short":"CDMX"},"streetNumber":"8","streetName":"Buen Tono","city":"Centro","country":"Mexico","countryCode":"MX","zipcode":"06000","provider":"google"}},{"address":"AV. JOSE MARIA CASTORENA NO. 316, CUAJIMALPA, CUAJIMALPA DE MORELOS, ","name":"KAYCHEE 147-Cuajimalpa","index":72,"pristine":false,"geocode":{"formattedAddress":"Calle José María Castorena 316, Cuajimalpa, 05000 Ciudad de México, CDMX, Mexico","latitude":19.3593959,"longitude":-99.2935704,"extra":{"googlePlaceId":"ChIJowHgazkH0oUR5lSBw2Y29xA","confidence":1,"premise":null,"subpremise":null,"neighborhood":"Cuajimalpa","establishment":null},"administrativeLevels":{"level1long":"Ciudad de México","level1short":"CDMX"},"streetNumber":"316","streetName":"Calle José María Castorena","city":"Ciudad de México","country":"Mexico","countryCode":"MX","zipcode":"05000","provider":"google"}},{"address":"BLVRD. INTERLOMAS NO. 5, LOCAL A-400 CENTRO COM INTERLOMAS, COL. SAN FERNANDO LA HERRADURA, HUIXQUILUCAN, ESTADO DE MEXICO. 52760 ","name":"KAYCHEE 231-UN-Interlomas","index":73,"pristine":false},{"address":"AV. MIGUEL DE CERVANTES SAAVEDRA NO. 397, COL. IRRIGACION, DEL. MIGUEL HIDALGO, MEXICO, DISTRITO FEDERAL.","name":"KAYCHEE 232-UN-Polanco","index":74,"pristine":false,"geocode":{"formattedAddress":"Blvd. Miguel de Cervantes Saavedra 397, Col. Irrigación, Ciudad de México, CDMX, Mexico","latitude":19.4417115,"longitude":-99.2064194,"extra":{"googlePlaceId":"ChIJv-rFCg8C0oURKpFO7yo2C5w","confidence":1,"premise":null,"subpremise":null,"neighborhood":"Colonia Irrigación","establishment":null},"administrativeLevels":{"level1long":"Ciudad de México","level1short":"CDMX"},"streetNumber":"397","streetName":"Boulevard Miguel de Cervantes Saavedra","city":"Ciudad de México","country":"Mexico","countryCode":"MX","provider":"google"}},{"address":"AV. ANTONIO DOVALI JAIME NO. 70, COL. ZEDEC SANTA FE","name":"KAYCHEE 652-UN-Samara Santa Fe","index":75,"pristine":false,"geocode":{"formattedAddress":"Antonio Dovali Jaime 70, Santa Fe, Zedec Sta Fé, 01219 Ciudad de México, CDMX, Mexico","latitude":19.3677857,"longitude":-99.25955,"extra":{"googlePlaceId":"ChIJE8URLMMA0oUR_mh-Orfb_88","confidence":1,"premise":null,"subpremise":null,"neighborhood":"Santa Fe","establishment":null},"administrativeLevels":{"level1long":"Ciudad de México","level1short":"CDMX"},"streetNumber":"70","streetName":"Antonio Dovali Jaime","city":"Ciudad de México","country":"Mexico","countryCode":"MX","zipcode":"01219","provider":"google"}},{"address":"AV. DE LOS BOSQUES NO. 128, LOMAS DE TECAMACHALCO, HUIXQUILUCAN, ","name":"KAYCHEE 655-Tecamachalco","index":76,"pristine":false,"geocode":{"formattedAddress":"Av. de los Bosques 128, Lomas de Tecamachalco, 52780 Huixquilucan, Méx., Mexico","latitude":19.4111548,"longitude":-99.25080609999999,"extra":{"googlePlaceId":"ChIJ3dWhSmkB0oURgPYDdJCqKMQ","confidence":1,"premise":null,"subpremise":null,"neighborhood":"Lomas de Tecamachalco","establishment":null},"administrativeLevels":{"level1long":"Estado de México","level1short":"Méx."},"streetNumber":"128","streetName":"Avenida de los Bosques","city":"Huixquilucan","country":"Mexico","countryCode":"MX","zipcode":"52780","provider":"google"}},{"address":"AV. SAN MATEO NO. 17, COL. ATIZAPAN CENTRO, MPIO. ATIZAPAN DE ZARAGOZA, ESTADO DE MEXICO.","name":"KAYCHEE 18-UN-Atizapan","index":77,"pristine":false,"geocode":{"formattedAddress":"Calz. S. Mateo 17, Atizapan Centro, 52900 Cd López Mateos, Méx., Mexico","latitude":19.5609237,"longitude":-99.2464998,"extra":{"googlePlaceId":"EkpDYWx6LiBTLiBNYXRlbyAxNywgQXRpemFwYW4gQ2VudHJvLCA1MjkwMCBDZCBMw7NwZXogTWF0ZW9zLCBNw6l4LiwgTcOpeGljbw","confidence":0.9,"premise":null,"subpremise":null,"neighborhood":"Atizapan Centro","establishment":null},"administrativeLevels":{"level1long":"Estado de México","level1short":"Méx."},"streetNumber":"17","streetName":"Calzada San Mateo","city":"Ciudad López Mateos","country":"Mexico","countryCode":"MX","zipcode":"52900","provider":"google"}},{"address":"CARRETERA ATIZAPAN- NICOLAS ROMERO NO. 4, COL. FRANCISCO SARABIA, MPIO. NICOLAS ROMERO,  ESTADO DE MEXICO,","name":"KAYCHEE 111-UN-Nicolas Romero","index":78,"pristine":false,"geocode":{"formattedAddress":"Atizapán Villa Nicolás Romero 4, Francisco Sarabia, 54473 Villa Nicolás Romero, Méx., Mexico","latitude":19.5939723,"longitude":-99.2797642,"extra":{"googlePlaceId":"ChIJg0TDn_Ub0oURy7ANw_n_WxA","confidence":1,"premise":null,"subpremise":null,"neighborhood":"Francisco Sarabia","establishment":null},"administrativeLevels":{"level1long":"Estado de México","level1short":"Méx."},"streetNumber":"4","streetName":"Atizapán Villa Nicolás Romero","city":"Villa Nicolás Romero","country":"Mexico","countryCode":"MX","zipcode":"54473","provider":"google"}},{"address":"AV. BOULEVARD REFORMA No.42, SAN FRANCISCO CHILPAN, TULTITLAN, ","name":"KAYCHEE 130-Cd. Labor","index":79,"pristine":false,"geocode":{"formattedAddress":"Blvrd Reforma 42, Fimesa I, 54946 Buenavista, Méx., Mexico","latitude":19.6082926,"longitude":-99.17750810000001,"extra":{"googlePlaceId":"ChIJ8wIR3g_20YURtMZeQ6pF2TM","confidence":1,"premise":null,"subpremise":null,"neighborhood":"Fimesa I","establishment":null},"administrativeLevels":{"level1long":"Estado de México","level1short":"Méx."},"streetNumber":"42","streetName":"Boulevard Reforma","city":"Buenavista","country":"Mexico","countryCode":"MX","zipcode":"54946","provider":"google"}},{"address":"VIALIDAD MEXIQUENSE NO. 92, FRACC. SAN FRANCISCO, COACALCO, ESTADO DE MEXICO, ","name":"KAYCHEE 146-Coacalco","index":80,"pristine":false,"geocode":{"formattedAddress":"Calle Vialidad Mexiquense Parcela 92, Fracc. San Francisco Coacalco, 55712 San Francisco Coacalco, Méx., Mexico","latitude":19.6449928,"longitude":-99.1083584,"extra":{"googlePlaceId":"ChIJ7_UT7gz00YURlt24YR_BSL8","confidence":0.5,"premise":null,"subpremise":null,"neighborhood":"Fracc. San Francisco Coacalco","establishment":null},"administrativeLevels":{"level1long":"Estado de México","level1short":"Méx."},"city":"San Francisco Coacalco","country":"Mexico","countryCode":"MX","zipcode":"55712","provider":"google"}},{"address":"BLVD. BELLAVISTA NO. 22, LOMAS DE BELLAVISTA, ATIZAPAN DE ZARAGOZA, ATIZAPAN,","name":"KAYCHEE 161-Bellavista","index":81,"pristine":false,"geocode":{"formattedAddress":"Blvd. Bellavista 22, Lomas de Bellavista, 52994 Cd López Mateos, Méx., Mexico","latitude":19.5213493,"longitude":-99.25263179999999,"extra":{"googlePlaceId":"ChIJI-WBzDQD0oURq6aO46J7BEE","confidence":1,"premise":null,"subpremise":null,"neighborhood":"Lomas de Bellavista","establishment":null},"administrativeLevels":{"level1long":"Estado de México","level1short":"Méx."},"streetNumber":"22","streetName":"Boulevard Bellavista","city":"Ciudad López Mateos","country":"Mexico","countryCode":"MX","zipcode":"52994","provider":"google"}},{"address":"BOSQUE DE BOLOGNIA S/N, BOSQUES DEL LAGO, CUAUTITLAN IZCALLI, ","name":"KAYCHEE 167-Lago de Gpe","index":82,"pristine":false,"geocode":{"formattedAddress":"Cto. Bosques de Bolognia s/n, Bosques del Lago, 54766 Cuautitlán Izcalli, Méx., Mexico","latitude":19.6125668,"longitude":-99.2416825,"extra":{"googlePlaceId":"ChIJA4EVOoEe0oURD2qRVnusBAY","confidence":0.5,"premise":null,"subpremise":null,"neighborhood":"Bosques del Lago","establishment":null},"administrativeLevels":{"level1long":"Estado de México","level1short":"Méx."},"city":"Cuautitlán Izcalli","country":"Mexico","countryCode":"MX","zipcode":"54766","provider":"google"}},{"address":"BLVD. MANUEL AVILA CAMACHO NO. 1007, COL SAN LUCAS TEPETLACALCO, TLALNEPANTLA, ESTADO DE MEXICO.","name":"KAYCHEE 236-UN-Mundo E *Satelite","index":83,"pristine":false,"geocode":{"formattedAddress":"Perif. Blvd. Manuel Ávila Camacho 1007, Hab Jardines de Santa Monica, 54050 Tlalnepantla, Méx., Mexico","latitude":19.5258124,"longitude":-99.2277106,"extra":{"googlePlaceId":"ChIJJU1rkywd0oURZekDK1sL3_c","confidence":1,"premise":null,"subpremise":null,"neighborhood":"Habitacional Jardines de Santa Monica","establishment":null},"administrativeLevels":{"level1long":"Estado de México","level1short":"Méx."},"streetNumber":"1007","streetName":"Periférico Boulevard Manuel Ávila Camacho","city":"Tlalnepantla","country":"Mexico","countryCode":"MX","zipcode":"54050","provider":"google"}},{"address":"AV. LA VENTISCA NO. 100, COL. SOLIDARIDAD NACIONAL,","name":"KAYCHEE 237-UN-Tenayuca","index":84,"pristine":false},{"address":"PARQUE CENTRAL No. 44, UNIDAD HABITACIONAL ADOLFO LOPEZ MATEOS,TLALNEPANTLA DE BAZ,  ","name":"KAYCHEE 667-Viveros","index":85,"pristine":false,"geocode":{"formattedAddress":"Parque Central Poniente 44, U Hab. Adolfo López Mateos, U.H. Adolfo Lopez Mateos, 54070 Tlalnepantla, Méx., Mexico","latitude":19.5232991,"longitude":-99.2128106,"extra":{"googlePlaceId":"ChIJ1T32scoC0oURDvvq6ZRNYYo","confidence":1,"premise":null,"subpremise":null,"neighborhood":"U Habitacional Adolfo López Mateos","establishment":null},"administrativeLevels":{"level1long":"Estado de México","level1short":"Méx."},"streetNumber":"44","streetName":"Parque Central Poniente","city":"Tlalnepantla","country":"Mexico","countryCode":"MX","zipcode":"54070","provider":"google"}},{"address":"CALLE SOTO Y GAMA NO. 21,","name":"KAYCHEE 100-UN-Iztapalapa","index":86,"pristine":false,"geocode":{"formattedAddress":"Calle Soto y Gama No. 21, Progresista, 09240 Iztapalapa, CDMX, Mexico","latitude":19.3590359,"longitude":-99.06315599999999,"extra":{"googlePlaceId":"ChIJl9vN45v90YURzAeGfZk0T2w","confidence":0.5,"premise":null,"subpremise":null,"neighborhood":"Progresista","establishment":null},"administrativeLevels":{"level1long":"Ciudad de México","level1short":"CDMX"},"city":"Iztapalapa","country":"Mexico","countryCode":"MX","zipcode":"09240","provider":"google"}},{"address":"RIO CHURUBUSCO NO. 1072, NUEVA ROSITA, IZTAPALAPA, MEXICO,","name":"KAYCHEE 121-Churubusco","index":87,"pristine":false,"geocode":{"formattedAddress":"Cto Interior Avenida Río Churubusco 1072, Los Picos VI B, 09420 Ciudad de México, CDMX, Mexico","latitude":19.3792956,"longitude":-99.10226759999999,"extra":{"googlePlaceId":"ChIJQxbKhnj-0YURECDg0ZN5xII","confidence":1,"premise":null,"subpremise":null,"neighborhood":"Los Picos VI B","establishment":null},"administrativeLevels":{"level1long":"Ciudad de México","level1short":"CDMX"},"streetNumber":"1072","streetName":"Circuito Interior Avenida Río Churubusco","city":"Ciudad de México","country":"Mexico","countryCode":"MX","zipcode":"09420","provider":"google"}},{"address":"AV. AQUILES CERDAN No. 360, QUIRINO MENDOZA, TULYEHUALCO, DISTRITO FEDERAL, ","name":"KAYCHEE 140-Tulyehualco","index":88,"pristine":false,"geocode":{"formattedAddress":"Av. Aquiles Serdán 360, Quirino Mendoza, 16700 Ciudad de México, CDMX, Mexico","latitude":19.2583396,"longitude":-99.0231785,"extra":{"googlePlaceId":"ElBBdi4gQXF1aWxlcyBTZXJkw6FuIDM2MCwgUXVpcmlubyBNZW5kb3phLCAxNjcwMCBDaXVkYWQgZGUgTcOpeGljbywgQ0RNWCwgTcOpeGljbw","confidence":0.9,"premise":null,"subpremise":null,"neighborhood":"Quirino Mendoza","establishment":null},"administrativeLevels":{"level1long":"Ciudad de México","level1short":"CDMX"},"streetNumber":"360","streetName":"Avenida Aquiles Serdán","city":"Ciudad de México","country":"Mexico","countryCode":"MX","zipcode":"16700","provider":"google"}},{"address":"AV. PEDRO ENRIQUEZ UREÑA NO. 514, PUEBLO DE LOS REYES, COYOACAN,MEXICO,  ","name":"KAYCHEE 141-Copilco","index":89,"pristine":false,"geocode":{"formattedAddress":"Av. Pedro Henríquez Ureña 514, Los Reyes, 04330 Ciudad de México, CDMX, Mexico","latitude":19.3350863,"longitude":-99.1556109,"extra":{"googlePlaceId":"ChIJG5T8YSgAzoURlyyZs4aQjLA","confidence":1,"premise":null,"subpremise":null,"neighborhood":"Los Reyes","establishment":null},"administrativeLevels":{"level1long":"Ciudad de México","level1short":"CDMX"},"streetNumber":"514","streetName":"Avenida Pedro Henríquez Ureña","city":"Ciudad de México","country":"Mexico","countryCode":"MX","zipcode":"04330","provider":"google"}},{"address":"CARRETERA A SANTIAGO TEPELCATLALPAN NO. 400, LA CONCHA, XOCHIMILCO, ","name":"KAYCHEE 154-Xochimilco","index":90,"pristine":false,"geocode":{"formattedAddress":"Carretera a Santiago Tepelcatalpan 400, Xochimilco, La Concha, 16210 Ciudad de México, CDMX, Mexico","latitude":19.2573915,"longitude":-99.1222691,"extra":{"googlePlaceId":"ChIJ50nP5kcBzoURxV9lQJm2tRQ","confidence":0.5,"premise":null,"subpremise":null,"neighborhood":"La Concha","establishment":null},"administrativeLevels":{"level1long":"Ciudad de México","level1short":"CDMX"},"city":"Ciudad de México","country":"Mexico","countryCode":"MX","zipcode":"16210","provider":"google"}},{"address":"BENITO JUAREZ NO. 117, EX HACIENDA COAPA, COYOACAN, MEXICO, ","name":"KAYCHEE 158-Plaza América","index":91,"pristine":false,"geocode":{"formattedAddress":"Benito Juárez 117, Ex-Hacienda Coapa, 04980 Ciudad de México, CDMX, Mexico","latitude":19.3129207,"longitude":-99.13531619999999,"extra":{"googlePlaceId":"ChIJhxPanrcBzoURy2PcVUynhtQ","confidence":1,"premise":null,"subpremise":null,"neighborhood":"Ex-Hacienda Coapa","establishment":null},"administrativeLevels":{"level1long":"Ciudad de México","level1short":"CDMX"},"streetNumber":"117","streetName":"Benito Juárez","city":"Ciudad de México","country":"Mexico","countryCode":"MX","zipcode":"04980","provider":"google"}},{"address":"CALZADA IGNACIO ZARAGOZA NO. 846, PANTITLAN, IZTACALCO, DF, ","name":"KAYCHEE 165-Zaragoza","index":92,"pristine":false,"geocode":{"formattedAddress":"Calz. Ignacio Zaragoza 846, Agrícola Pantitlán, 08100 Ciudad de México, CDMX, Mexico","latitude":19.4088707,"longitude":-99.07532309999999,"extra":{"googlePlaceId":"ChIJFcEVF0H80YURHsuOm02sjW0","confidence":1,"premise":null,"subpremise":null,"neighborhood":"Agrícola Pantitlán","establishment":null},"administrativeLevels":{"level1long":"Ciudad de México","level1short":"CDMX"},"streetNumber":"846","streetName":"Calzada Ignacio Zaragoza","city":"Ciudad de México","country":"Mexico","countryCode":"MX","zipcode":"08100","provider":"google"}},{"address":"CALZ. DEL HUESO NO. 670, COL. LOS ROBLES,","name":"KAYCHEE 233-UN-Coapa","index":93,"pristine":false,"geocode":{"formattedAddress":"Calz. del Hueso 670, Coapa 28 Bis, 04920 Ciudad de México, CDMX, Mexico","latitude":19.3034492,"longitude":-99.1182401,"extra":{"googlePlaceId":"ChIJrXGwm5kBzoURUTapYKwOo64","confidence":1,"premise":null,"subpremise":null,"neighborhood":"Coapa 28 Bis","establishment":null},"administrativeLevels":{"level1long":"Ciudad de México","level1short":"CDMX"},"streetNumber":"670","streetName":"Calzada del Hueso","city":"Ciudad de México","country":"Mexico","countryCode":"MX","zipcode":"04920","provider":"google"}},{"address":"CARRET. PICACHO-AJUSCO NO. 175, COL. HEROES DE PADIERNA,","name":"KAYCHEE 234-UN-Ajusco","index":94,"pristine":false,"geocode":{"formattedAddress":"Carr. Picacho-Ajusco 175, Héroes de Padierna, 14200 Ciudad de México, CDMX, Mexico","latitude":19.2871612,"longitude":-99.2184378,"extra":{"googlePlaceId":"ElVDYXJyLiBQaWNhY2hvLUFqdXNjbyAxNzUsIEjDqXJvZXMgZGUgUGFkaWVybmEsIDE0MjAwIENpdWRhZCBkZSBNw6l4aWNvLCBDRE1YLCBNw6l4aWNv","confidence":0.9,"premise":null,"subpremise":null,"neighborhood":"Héroes de Padierna","establishment":null},"administrativeLevels":{"level1long":"Ciudad de México","level1short":"CDMX"},"streetNumber":"175","streetName":"Carretera Picacho-Ajusco","city":"Ciudad de México","country":"Mexico","countryCode":"MX","zipcode":"14200","provider":"google"}},{"address":"AV. UNIVERSIDAD NO. 740, COL STA CRUZ ATOYAC,","name":"KAYCHEE 235-UN-Universidad","index":95,"pristine":false,"geocode":{"formattedAddress":"Avenida Universidad 740, Sta Cruz Atoyac, 03310 Ciudad de México, CDMX, Mexico","latitude":19.3733699,"longitude":-99.1624452,"extra":{"googlePlaceId":"ChIJ366rtrz_0YURfBAqIlxsJkw","confidence":1,"premise":null,"subpremise":null,"neighborhood":"Santa Cruz Atoyac","establishment":null},"administrativeLevels":{"level1long":"Ciudad de México","level1short":"CDMX"},"streetNumber":"740","streetName":"Avenida Universidad","city":"Ciudad de México","country":"Mexico","countryCode":"MX","zipcode":"03310","provider":"google"}},{"address":"ANFORA NO. 71, COL MADERO,","name":"KAYCHEE 241-UN-Anfora","index":96,"pristine":false,"geocode":{"formattedAddress":"Anfora 71, Madero, 15360 Ciudad de México, CDMX, Mexico","latitude":19.4354414,"longitude":-99.1101339,"extra":{"googlePlaceId":"ChIJBffD7lL50YUR8-6b2yho1Ds","confidence":1,"premise":null,"subpremise":null,"neighborhood":"Madero","establishment":null},"administrativeLevels":{"level1long":"Ciudad de México","level1short":"CDMX"},"streetNumber":"71","streetName":"Anfora","city":"Ciudad de México","country":"Mexico","countryCode":"MX","zipcode":"15360","provider":"google"}},{"address":"AV. CANAL TEZONTLE No. 1512, DR. ALFONSO ORTIZ TIRADO, IZTAPALAPA, MEXICO, DF, ","name":"KAYCHEE 670-Tezontle","index":97,"pristine":false,"geocode":{"formattedAddress":"Av Canal de Tezontle 1512, Iztapalapa, 09020 Ciudad de México, CDMX, Mexico","latitude":19.383021,"longitude":-99.079343,"extra":{"googlePlaceId":"ChIJzS2R_8n90YUR44PrTzQVglY","confidence":1,"premise":null,"subpremise":null,"neighborhood":"Iztapalapa","establishment":null},"administrativeLevels":{"level1long":"Ciudad de México","level1short":"CDMX"},"streetNumber":"1512","streetName":"Avenida Canal de Tezontle","city":"Ciudad de México","country":"Mexico","countryCode":"MX","zipcode":"09020","provider":"google"}},{"address":"AV. CENTRAL","name":"KAYCHEE 39-UN-Ecatepec *Palomas","index":98,"pristine":false,"geocode":{"formattedAddress":"Avenida Central, Lady Lake, FL 32159, USA","latitude":28.9371365,"longitude":-81.9489465,"extra":{"googlePlaceId":"ChIJqTcvzIbG54gR4E7YGiZe9iU","confidence":0.7,"premise":null,"subpremise":null,"neighborhood":null,"establishment":null},"administrativeLevels":{"level2long":"Lake County","level2short":"Lake County","level1long":"Florida","level1short":"FL"},"streetName":"Avenida Central","city":"Lady Lake","country":"United States","countryCode":"US","zipcode":"32159","provider":"google"}},{"address":"CARR. FED. MEX-PACHUCA KM. 35.3 S/N, FRACC. SIERRA HERMOSA, TECAMAC DE FELIPE VILLANUEVA CENTRO, ESTADO DE MEXICO.","name":"KAYCHEE 91-UN-Tecamac","index":99,"pristine":false},{"address":"AV. SANTA CRUZ OJO DE AGUA NO. 88, COL. EX-EJIDO DE SAN FRANCISCO, MPIO. DE TECAMAC, ESTADO DE MEXICO.","name":"KAYCHEE 107-UN-Ojo de Agua","index":100,"pristine":false},{"address":"AV. TEPOZANES NO. 3 , COL. VALLE DE LOS REYES, MPIO. LOS REYES LA PAZ, MEXICO, ESTADO DE MEXICO.","name":"KAYCHEE 116-UN-Tepozan","index":101,"pristine":false,"geocode":{"formattedAddress":"Av. Tepozanes 3, Loma Bonita, 57940 Nezahualcóyotl, Méx., Mexico","latitude":19.3767708,"longitude":-98.99188989999999,"extra":{"googlePlaceId":"EkNBdi4gVGVwb3phbmVzIDMsIExvbWEgQm9uaXRhLCA1Nzk0MCBOZXphaHVhbGPDs3lvdGwsIE3DqXguLCBNw6l4aWNv","confidence":0.9,"premise":null,"subpremise":null,"neighborhood":"Loma Bonita","establishment":null},"administrativeLevels":{"level1long":"Estado de México","level1short":"Méx."},"streetNumber":"3","streetName":"Avenida Tepozanes","city":"Nezahualcóyotl","country":"Mexico","countryCode":"MX","zipcode":"57940","provider":"google"}},{"address":"AV. OZUMBILLA LOTE 27 MZA. 42 NO. 97, LOS HEROES TECAMAC III, TECAMAC DE FELIPE VILLANUEVA, MEXICO, ","name":"KAYCHEE 157-Tecamac II (Heroes)","index":102,"pristine":false},{"address":"AV. EDUARDO MOLINA NO. 1623, COL. EL COYOL,","name":"KAYCHEE 239-UN-Eduardo Molina","index":103,"pristine":false,"geocode":{"formattedAddress":"Av. Ing. Eduardo Molina 1623, El Coyol, 07420 Ciudad de México, CDMX, Mexico","latitude":19.4857353,"longitude":-99.0947034,"extra":{"googlePlaceId":"Ek5Bdi4gSW5nLiBFZHVhcmRvIE1vbGluYSAxNjIzLCBFbCBDb3lvbCwgMDc0MjAgQ2l1ZGFkIGRlIE3DqXhpY28sIENETVgsIE3DqXhpY28","confidence":0.9,"premise":null,"subpremise":null,"neighborhood":"El Coyol","establishment":null},"administrativeLevels":{"level1long":"Ciudad de México","level1short":"CDMX"},"streetNumber":"1623","streetName":"Avenida Ingeniero Eduardo Molina","city":"Ciudad de México","country":"Mexico","countryCode":"MX","zipcode":"07420","provider":"google"}},{"address":"4TA. AVENIDA NO. 257 LOTE 1","name":"KAYCHEE 240-UN-Neza 1 *Estadio","index":104,"pristine":false,"geocode":{"formattedAddress":"257, Av. Cuarta Nte. 1, Lotes Urbanos, Delicias, Chih., Mexico","latitude":28.2033337,"longitude":-105.4606926,"extra":{"googlePlaceId":"Ej8yNTcsIEF2LiBDdWFydGEgTnRlLiAxLCBMb3RlcyBVcmJhbm9zLCBEZWxpY2lhcywgQ2hpaC4sIE3DqXhpY28","confidence":1,"premise":null,"subpremise":"257","neighborhood":"Lotes Urbanos","establishment":null},"administrativeLevels":{"level1long":"Chihuahua","level1short":"Chih."},"streetNumber":"1","streetName":"Avenida Cuarta Norte","city":"Delicias","country":"Mexico","countryCode":"MX","provider":"google"}},{"address":"AV. PLAZA CENTRAL NO. 1, COL. PLAZAS DE ARAGON, CIUDAD NEZAHUALCOYOTL, ESTADO DE MEXICO.","name":"KAYCHEE 260-UN-Neza 2 *Impulsora","index":105,"pristine":false,"geocode":{"formattedAddress":"Av. Plaza Central 1, Plazas de Aragon, 57139 Nezahualcóyotl, Méx., Mexico","latitude":19.4836596,"longitude":-99.0382121,"extra":{"googlePlaceId":"ChIJEXfeSB770YURVUpDt8hoGbQ","confidence":1,"premise":null,"subpremise":null,"neighborhood":"Plazas de Aragon","establishment":null},"administrativeLevels":{"level1long":"Estado de México","level1short":"Méx."},"streetNumber":"1","streetName":"Avenida Plaza Central","city":"Nezahualcóyotl","country":"Mexico","countryCode":"MX","zipcode":"57139","provider":"google"}},{"address":"Vicente Lombardo Toledano #343 Santa Maria Totoltepec","name":"La Tienda Especiál 1142-Totoltepec","index":106,"pristine":false,"geocode":{"formattedAddress":"Paseo Vicente Lombardo Toledano 343, Delegación Santa María Totoltepec, 50200 Toluca de Lerdo, Méx., Mexico","latitude":19.3100831,"longitude":-99.5866733,"extra":{"googlePlaceId":"ChIJj9j4KoGKzYUREi-5ejN2xpU","confidence":1,"premise":null,"subpremise":null,"neighborhood":"Delegación Santa María Totoltepec","establishment":null},"administrativeLevels":{"level1long":"Estado de México","level1short":"Méx."},"streetNumber":"343","streetName":"Paseo Vicente Lombardo Toledano","city":"Toluca de Lerdo","country":"Mexico","countryCode":"MX","zipcode":"50200","provider":"google"}},{"address":"Blvrd. Jorobas-Huehuetoca KM  4.5,  Barrio de Salitrillo","name":"La Tienda Especiál 1150-Huehuetoca","index":107,"pristine":false,"geocode":{"formattedAddress":"Blvrd Huehuetoca - Jorobas 4, Jagüeyes, Méx., Mexico","latitude":19.8301285,"longitude":-99.2274042,"extra":{"googlePlaceId":"EjdCbHZyZCBIdWVodWV0b2NhIC0gSm9yb2JhcyA0LCBKYWfDvGV5ZXMsIE3DqXguLCBNw6l4aWNv","confidence":0.9,"premise":null,"subpremise":null,"neighborhood":null,"establishment":null},"administrativeLevels":{"level1long":"Estado de México","level1short":"Méx."},"streetNumber":"4","streetName":"Boulevard Huehuetoca - Jorobas","city":"Jagüeyes","country":"Mexico","countryCode":"MX","provider":"google"}},{"address":"Av. Cuauhtémoc N° 467,","name":"La Tienda Especiál 1161-Valle De Chalco","index":108,"pristine":false,"geocode":{"formattedAddress":"Avenida Cuauhtémoc 467, Piedad Narvarte, 03000 Ciudad de México, CDMX, Mexico","latitude":19.4030298,"longitude":-99.15557539999999,"extra":{"googlePlaceId":"ChIJfUc09Bn_0YURBdXUPsYkPTM","confidence":1,"premise":null,"subpremise":null,"neighborhood":"Piedad Narvarte","establishment":null},"administrativeLevels":{"level1long":"Ciudad de México","level1short":"CDMX"},"streetNumber":"467","streetName":"Avenida Cuauhtémoc","city":"Ciudad de México","country":"Mexico","countryCode":"MX","zipcode":"03000","provider":"google"}},{"address":"Av. Catarino Gonzalez Benítez 202| Santiago Tianguistenco, Estado de México","name":"La Tienda Especiál 1177-Santiago Tianguistenco","index":109,"pristine":false,"geocode":{"formattedAddress":"Don Catarino González Benítez 202, Tianguistenco de Galeana, 52600 Santiago Tianguistenco, Méx., Mexico","latitude":19.1769224,"longitude":-99.4696367,"extra":{"googlePlaceId":"ChIJ7fAbTjLyzYURmZS7jk678OQ","confidence":1,"premise":null,"subpremise":null,"neighborhood":"Tianguistenco de Galeana","establishment":null},"administrativeLevels":{"level1long":"Estado de México","level1short":"Méx."},"streetNumber":"202","streetName":"Don Catarino González Benítez","city":"Santiago Tianguistenco","country":"Mexico","countryCode":"MX","zipcode":"52600","provider":"google"}},{"address":"San Felipe de Jesus M- 20 Lte. 10","name":"La Tienda Especiál 1199-Tepojaco","index":110,"pristine":false},{"address":"Av. Adolfo López Mateos S/N Col. Miguel Hidalgo Ecatepec Edo. De México","name":"La Tienda Especiál 1201-San Agustín Ecatepec","index":111,"pristine":false,"geocode":{"formattedAddress":"Adolfo López Mateos, Ecatepec de Morelos, Méx., Mexico","latitude":19.5222113,"longitude":-99.06917299999999,"extra":{"googlePlaceId":"ChIJzwsSgnD60YURjv74cD5e2ok","confidence":0.7,"premise":null,"subpremise":null,"neighborhood":null,"establishment":null},"administrativeLevels":{"level1long":"Estado de México","level1short":"Méx."},"streetName":"Calle 18","city":"Ecatepec de Morelos","country":"Mexico","countryCode":"MX","provider":"google"}},{"address":"Camino Sanpablo Tecalco S/N  Colonia Nueva Santa Maria (De San Pablo Tecalco)  C. P. 55747","name":"La Tienda Especiál 1233-Tecalco","index":112,"pristine":false,"geocode":{"formattedAddress":"S. Pablo Tecalco, Ojo de Agua, Méx., Mexico","latitude":19.6851438,"longitude":-98.9827631,"extra":{"googlePlaceId":"ChIJQ40k4w7t0YURLjAwiw7vrAk","confidence":0.7,"premise":null,"subpremise":null,"neighborhood":null,"establishment":null},"administrativeLevels":{"level1long":"Estado de México","level1short":"Méx."},"streetName":"San Pablo Tecalco","city":"Ojo de Agua","country":"Mexico","countryCode":"MX","provider":"google"}},{"address":"Av. Mario Colín Sánchez N° 283,","name":"La Tienda Especiál 1236-Atlacomulco","index":113,"pristine":false,"geocode":{"formattedAddress":"Mario Colin Sánchez 283, Cuatro Milpas, 50450 Atlacomulco de Fabela, Méx., Mexico","latitude":19.7964563,"longitude":-99.8824894,"extra":{"googlePlaceId":"ElRNYXJpbyBDb2xpbiBTw6FuY2hleiAyODMsIEN1YXRybyBNaWxwYXMsIDUwNDUwIEF0bGFjb211bGNvIGRlIEZhYmVsYSwgTcOpeC4sIE3DqXhpY28","confidence":0.9,"premise":null,"subpremise":null,"neighborhood":"Cuatro Milpas","establishment":null},"administrativeLevels":{"level1long":"Estado de México","level1short":"Méx."},"streetNumber":"283","streetName":"Mario Colin Sánchez","city":"Atlacomulco de Fabela","country":"Mexico","countryCode":"MX","zipcode":"50450","provider":"google"}},{"address":"Av Isaac Colin #281 Las Garzas Coacalco de Berriozabal Edo de Mex","name":"La Tienda Especiál 1400-Joyas de Coacalco","index":114,"pristine":false},{"address":"Av. Benito Juárez No. 504 Barrio de Santiago ","name":"La Tienda Especiál 1428-San Mateo Atenco","index":115,"pristine":false,"geocode":{"formattedAddress":"Benito Juárez 504, Benito Juárez, 71603 Pinotepa Nacional, Oax., Mexico","latitude":16.3389612,"longitude":-98.0467427,"extra":{"googlePlaceId":"ChIJrQHxpoDht4URX9gY0_xwb80","confidence":1,"premise":null,"subpremise":null,"neighborhood":"Benito Juárez","establishment":null},"administrativeLevels":{"level1long":"Oaxaca","level1short":"Oax."},"streetNumber":"504","streetName":"Benito Juárez","city":"Pinotepa Nacional","country":"Mexico","countryCode":"MX","zipcode":"71603","provider":"google"}},{"address":"Av. De Las Granjas N° 41,  Col. Martires De Rio Blanco Muni","name":"La Tienda Especiál 1496-El Molinito","index":116,"pristine":false},{"address":"AV Venustiano Carranza #3 El Infiernillo Cuautitlán Edo de Mex","name":"La Tienda Especiál 1558-La Palma","index":117,"pristine":false,"geocode":{"formattedAddress":"Venustiano Carranza 3, Lazaro Cardenas, 54870 Cuautitlán, Méx., Mexico","latitude":19.6765879,"longitude":-99.1685464,"extra":{"googlePlaceId":"ChIJ0--K2XL10YURULF2NerFZiE","confidence":1,"premise":null,"subpremise":null,"neighborhood":"Lazaro Cardenas","establishment":null},"administrativeLevels":{"level1long":"Estado de México","level1short":"Méx."},"streetNumber":"3","streetName":"Venustiano Carranza","city":"Cuautitlán","country":"Mexico","countryCode":"MX","zipcode":"54870","provider":"google"}},{"address":"Camino Real A San Mateo N° 115,","name":"La Tienda Especiál 1559-San Mateo Nopala","index":118,"pristine":false,"geocode":{"formattedAddress":"115 El Camino Real, Menlo Park, CA 94025, USA","latitude":37.4477493,"longitude":-122.1735731,"extra":{"googlePlaceId":"ChIJMdeB20q7j4ARz90NH2egUdk","confidence":1,"premise":null,"subpremise":null,"neighborhood":"Allied Arts","establishment":null},"administrativeLevels":{"level2long":"San Mateo County","level2short":"San Mateo County","level1long":"California","level1short":"CA"},"streetNumber":"115","streetName":"El Camino Real","city":"Menlo Park","country":"United States","countryCode":"US","zipcode":"94025","provider":"google"}},{"address":"Avenida Morelos S/N San Gregorio Cuautzingo","name":"La Tienda Especiál 1634-Cuautzingo","index":119,"pristine":false,"geocode":{"formattedAddress":"Av. Morelos, Mexico","latitude":20.7481975,"longitude":-97.7944155,"extra":{"googlePlaceId":"ChIJraN1xg0KY4YRofTQDXFErQA","confidence":0.7,"premise":null,"subpremise":null,"neighborhood":null,"establishment":null},"administrativeLevels":{},"streetName":"Avenida Morelos","country":"Mexico","countryCode":"MX","provider":"google"}},{"address":"Carretera Libre México-Pirámides Km. 37 Col. Tepexpan Mun. Acolman ","name":"La Tienda Especiál 1828-Acolman","index":120,"pristine":false},{"address":"Av. Benito Juarez s/n  Colonia Centro, Almoloya de Juárez, Estado de México","name":"La Tienda Especiál 1829-Almoloya","index":121,"pristine":false,"geocode":{"formattedAddress":"Avenida Benito Juárez, Villa de Almoloya de Juárez, Méx., Mexico","latitude":19.3666643,"longitude":-99.75465489999999,"extra":{"googlePlaceId":"EkRBdmVuaWRhIEJlbml0byBKdcOhcmV6LCBWaWxsYSBkZSBBbG1vbG95YSBkZSBKdcOhcmV6LCBNw6l4LiwgTcOpeGljbw","confidence":0.7,"premise":null,"subpremise":null,"neighborhood":null,"establishment":null},"administrativeLevels":{"level1long":"Estado de México","level1short":"Méx."},"streetName":"Avenida Benito Juárez","city":"Villa de Almoloya de Juárez","country":"Mexico","countryCode":"MX","provider":"google"}},{"address":"Arbolada Los Maples N° 141,","name":"La Tienda Especiál 1830-Arbolada los Sauces","index":122,"pristine":false,"geocode":{"formattedAddress":"Paseo de los Maples 141, Arbolada Ixtapaluca, 56530 Ixtapaluca, Méx., Mexico","latitude":19.31377,"longitude":-98.8950924,"extra":{"googlePlaceId":"Ek5QYXNlbyBkZSBsb3MgTWFwbGVzIDE0MSwgQXJib2xhZGEgSXh0YXBhbHVjYSwgNTY1MzAgSXh0YXBhbHVjYSwgTcOpeC4sIE3DqXhpY28","confidence":0.9,"premise":null,"subpremise":null,"neighborhood":"Arbolada Ixtapaluca","establishment":null},"administrativeLevels":{"level1long":"Estado de México","level1short":"Méx."},"streetNumber":"141","streetName":"Paseo de los Maples","city":"Ixtapaluca","country":"Mexico","countryCode":"MX","zipcode":"56530","provider":"google"}},{"address":"Av. Juarez  N° 3,","name":"La Tienda Especiál 1870-Tepotzotlan","index":123,"pristine":false,"geocode":{"formattedAddress":"Av Juárez 3, Mexicaltzingo, 44100 Guadalajara, Jal., Mexico","latitude":20.6752487,"longitude":-103.342181,"extra":{"googlePlaceId":"ChIJO_hYm_GxKIQRfwwh6CKCZ4Y","confidence":1,"premise":null,"subpremise":null,"neighborhood":"Mexicaltzingo","establishment":null},"administrativeLevels":{"level1long":"Jalisco","level1short":"Jal."},"streetNumber":"3","streetName":"Avenida Juárez","city":"Guadalajara","country":"Mexico","countryCode":"MX","zipcode":"44100","provider":"google"}},{"address":"Carretera Zumpango-Los Reyes, No. 5000, Col. Paseos de San juan, Zumpango, Estado de México,","name":"La Tienda Especiál 1899-San Juan de la Labor","index":124,"pristine":false,"geocode":{"formattedAddress":"Carr. Reyes Zumpango, Reyes Acozac, 55755 Los Reyes Acozac, Méx., Mexico","latitude":19.7652863,"longitude":-98.9833494,"extra":{"googlePlaceId":"ChIJ08Uw1PCS0YUR4CvX7YSo4ms","confidence":0.7,"premise":null,"subpremise":null,"neighborhood":"Reyes Acozac","establishment":null},"administrativeLevels":{"level1long":"Estado de México","level1short":"Méx."},"streetName":"Carretera Reyes Zumpango","city":"Los Reyes Acozac","country":"Mexico","countryCode":"MX","zipcode":"55755","provider":"google"}},{"address":"Av. Centro Industrial N° 14 Y 16 Lotes 6 Y 7 ,","name":"La Tienda Especiál 1930-El Oro","index":125,"pristine":false,"geocode":{"formattedAddress":"R. do Parque Industrial 14, 4755-539 Várzea, Portugal","latitude":41.5252589,"longitude":-8.577691100000001,"extra":{"googlePlaceId":"ChIJjSlK_vtTJA0RDO83G0L2CJ8","confidence":1,"premise":null,"subpremise":null,"neighborhood":null,"establishment":null},"administrativeLevels":{"level1long":"Braga","level1short":"Braga"},"streetNumber":"14","streetName":"Rua do Parque Industrial","city":"Várzea","country":"Portugal","countryCode":"PT","zipcode":"4755-539","provider":"google"}},{"address":"Boulevard del Lago #1-A Mz 1 Lt 3 Colonia Geovillas de Terranova,  Acolman Edo. de Mex.","name":"La Tienda Especiál 2054-Terranova","index":126,"pristine":false},{"address":"Av. Prolongación San Sebastián S/N Lote 2, Esquina Arturo Montiel Rojas, Colonia Barrio de San Sebastián, Chalco Estado de México, CP.56600","name":"La Tienda Especiál 2072-Portal Chalco","index":127,"pristine":false},{"address":"Venustiano Carranza 133, Col. Centro","name":"La Tienda Especiál 2141-Xonacatlán","index":128,"pristine":false,"geocode":{"formattedAddress":"Venustiano Carranza 133, Centro, 28450 Comala, Col., Mexico","latitude":19.3214367,"longitude":-103.7591736,"extra":{"googlePlaceId":"EjxWZW51c3RpYW5vIENhcnJhbnphIDEzMywgQ2VudHJvLCAyODQ1MCBDb21hbGEsIENvbC4sIE3DqXhpY28","confidence":0.9,"premise":null,"subpremise":null,"neighborhood":"Centro","establishment":null},"administrativeLevels":{"level1long":"Colima","level1short":"Col."},"streetNumber":"133","streetName":"Venustiano Carranza","city":"Comala","country":"Mexico","countryCode":"MX","zipcode":"28450","provider":"google"}},{"address":"Maria del Refugio Alexandre Tarello No. 528 Col. San Buenaventura","name":"La Tienda Especiál 2221-Alpinismo","index":129,"pristine":false},{"address":"Agripin García Estrada N° 403,","name":"La Tienda Especiál 2240-Santa Cruz","index":130,"pristine":false,"geocode":{"formattedAddress":"Unidad Sindical Prof. Agripín García E., Estado de México, Mexico","latitude":19.248225,"longitude":-99.6318845,"extra":{"googlePlaceId":"ChIJKd9Ro96LzYURapYNuq_s5Uc","confidence":0.7,"premise":null,"subpremise":null,"neighborhood":null,"establishment":null},"administrativeLevels":{"level1long":"Estado de México","level1short":"Méx."},"streetName":"Unidad Sindical Profesor Agripín García E.","country":"Mexico","countryCode":"MX","provider":"google"}},{"address":"Camino Arenero #650 Col. San Jose Rio Hondo Muni","name":"La Tienda Especiál 2525-Río Hondo","index":131,"pristine":false},{"address":"Av. Del Peñón s/n Col. Xochitenco Chimalhuacán Estado de México","name":"La Tienda Especiál 2736-Chimalhuacan Peñon","index":132,"pristine":false,"geocode":{"formattedAddress":"Av. Peñon, Villa Xochitenco, Chimalhuacán, Méx., Mexico","latitude":19.4256248,"longitude":-98.9664833,"extra":{"googlePlaceId":"EjtBdi4gUGXDsW9uLCBWaWxsYSBYb2NoaXRlbmNvLCBDaGltYWxodWFjw6FuLCBNw6l4LiwgTcOpeGljbw","confidence":0.7,"premise":null,"subpremise":null,"neighborhood":"Villa Xochitenco","establishment":null},"administrativeLevels":{"level1long":"Estado de México","level1short":"Méx."},"streetName":"Avenida Peñon","city":"Chimalhuacán","country":"Mexico","countryCode":"MX","provider":"google"}},{"address":"Calle Etzatlan, N.25 Colonia Popular Rastro,","name":"La Tienda Especiál 2737- Etzatlan","index":133,"pristine":false,"geocode":{"formattedAddress":"Etzatlán 25, Popular Rastro, 15220 Ciudad de México, CDMX, Mexico","latitude":19.4518541,"longitude":-99.1199162,"extra":{"googlePlaceId":"ChIJC2G-MkH50YURLzNT11YRAIw","confidence":1,"premise":null,"subpremise":null,"neighborhood":"Popular Rastro","establishment":null},"administrativeLevels":{"level1long":"Ciudad de México","level1short":"CDMX"},"streetNumber":"25","streetName":"Etzatlán","city":"Ciudad de México","country":"Mexico","countryCode":"MX","zipcode":"15220","provider":"google"}},{"address":"Eje Central Lázaro Cárdenas Niño Perdido N° 303,","name":"La Tienda Especiál 2767-Doctores","index":134,"pristine":false},{"address":"Emiliano Zapara s/n ,","name":"La Tienda Especiál 2871-Viento Nuevo","index":135,"pristine":false,"geocode":{"formattedAddress":"Jorge Cruickshanks SN, Rincon Tecate, 21452 Tecate, B.C., Mexico","latitude":32.573025,"longitude":-116.6519203,"extra":{"googlePlaceId":"ChIJq6qq6uIS2YARQ34cmruM6hM","confidence":0.5,"premise":null,"subpremise":null,"neighborhood":"Rincon Tecate","establishment":null},"administrativeLevels":{"level1long":"Baja California","level1short":"B.C."},"streetNumber":"SN","streetName":"Jorge Cruickshanks","city":"Tecate","country":"Mexico","countryCode":"MX","zipcode":"21452","provider":"google"}},{"address":"Camino a San Antonio La Con","name":"La Tienda Especiál 2873-Dimas","index":136,"pristine":false,"geocode":{"formattedAddress":"Rua Antônio La Giudice - Jardim Aricanduva, São Paulo - SP, Brazil","latitude":-23.5667286,"longitude":-46.5103573,"extra":{"googlePlaceId":"ChIJY8EvpGZnzpQRMaX3D2Hq80U","confidence":0.7,"premise":null,"subpremise":null,"neighborhood":"Jardim Aricanduva","establishment":null},"administrativeLevels":{"level2long":"São Paulo","level2short":"São Paulo","level1long":"São Paulo","level1short":"SP"},"streetName":"Rua Antônio La Giudice","country":"Brazil","countryCode":"BR","provider":"google"}},{"address":"Av. San Andres s/n. Colonia Hank Gonzalez","name":"La Tienda Especiál 3020-Xalostoc","index":137,"pristine":false,"geocode":{"formattedAddress":"Av San Andrés, Hank Gonzalez, 55520 Ecatepec de Morelos, Méx., Mexico","latitude":19.5520132,"longitude":-99.07662839999999,"extra":{"googlePlaceId":"EkhBdiBTYW4gQW5kcsOpcywgSGFuayBHb256YWxleiwgNTU1MjAgRWNhdGVwZWMgZGUgTW9yZWxvcywgTcOpeC4sIE3DqXhpY28","confidence":0.7,"premise":null,"subpremise":null,"neighborhood":"Hank Gonzalez","establishment":null},"administrativeLevels":{"level1long":"Estado de México","level1short":"Méx."},"streetName":"Avenida San Andrés","city":"Ecatepec de Morelos","country":"Mexico","countryCode":"MX","zipcode":"55520","provider":"google"}},{"address":"Av. Gobernadora 50-E Colonia Tulpetlac","name":"La Tienda Especiál 3026-Gobernadora","index":138,"pristine":false,"geocode":{"formattedAddress":"Av. Gobernadora 50, Jardines del Cerro Gordo, 55100 Ecatepec de Morelos, Méx., Mexico","latitude":19.5585798,"longitude":-99.0248434,"extra":{"googlePlaceId":"ChIJb518OT3w0YURT9ijzP8kVGw","confidence":1,"premise":null,"subpremise":null,"neighborhood":"Jardines del Cerro Gordo","establishment":null},"administrativeLevels":{"level1long":"Estado de México","level1short":"Méx."},"streetNumber":"50","streetName":"Avenida Gobernadora","city":"Ecatepec de Morelos","country":"Mexico","countryCode":"MX","zipcode":"55100","provider":"google"}},{"address":"Av. 16 de Septiembre N° 349","name":"La Tienda Especiál 3043-Zinacantepec","index":139,"pristine":false,"geocode":{"formattedAddress":"Av. 16 de Septiembre 349, Mexicaltzingo, 44100 Guadalajara, Jal., Mexico","latitude":20.6711755,"longitude":-103.3472261,"extra":{"googlePlaceId":"EklBdi4gMTYgZGUgU2VwdGllbWJyZSAzNDksIE1leGljYWx0emluZ28sIDQ0MTAwIEd1YWRhbGFqYXJhLCBKYWwuLCBNw6l4aWNv","confidence":0.9,"premise":null,"subpremise":null,"neighborhood":"Mexicaltzingo","establishment":null},"administrativeLevels":{"level1long":"Jalisco","level1short":"Jal."},"streetNumber":"349","streetName":"Avenida 16 de Septiembre","city":"Guadalajara","country":"Mexico","countryCode":"MX","zipcode":"44100","provider":"google"}},{"address":"Tultepec #23 Bosques del Valle Coacalco de Berriozabal Edo de Mex CP.55717","name":"La Tienda Especiál 3065-Bosques del Valle","index":140,"pristine":false,"geocode":{"formattedAddress":"Coacalco-tultepec 95, Bosques del Valle, 55717 Coacalco de Berriozabal, Méx., Mexico","latitude":19.652278,"longitude":-99.118662,"extra":{"googlePlaceId":"ChIJ86gGWGn00YUR-R42VOppm6k","confidence":0.5,"premise":null,"subpremise":null,"neighborhood":"Bosques del Valle","establishment":null},"administrativeLevels":{"level1long":"Estado de México","level1short":"Méx."},"streetNumber":"95","streetName":"Coacalco-tultepec","city":"Coacalco de Berriozabal","country":"Mexico","countryCode":"MX","zipcode":"55717","provider":"google"}},{"address":"Carr. Lago de Gpe N° 388,","name":"La Tienda Especiál 3074-Villas De La Hacienda","index":141,"pristine":false,"geocode":{"formattedAddress":"Av Lago de Guadalupe 388, Villas de la Hacienda, 52929 Cd López Mateos, Méx., Mexico","latitude":19.608707,"longitude":-99.23296669999999,"extra":{"googlePlaceId":"ChIJUVeVJtMd0oURA4jRAsbNAa4","confidence":0.5,"premise":null,"subpremise":null,"neighborhood":"Villas de la Hacienda","establishment":null},"administrativeLevels":{"level1long":"Estado de México","level1short":"Méx."},"streetNumber":"388","streetName":"Avenida Lago de Guadalupe","city":"Ciudad López Mateos","country":"Mexico","countryCode":"MX","zipcode":"52929","provider":"google"}},{"address":"Vialidad mexiquense #2  Los Heroes de Tecamac , Tecamac  Edo de Mex","name":"La Tienda Especiál 3098-Guadalupana","index":142,"pristine":false,"geocode":{"formattedAddress":"Calle Mexiquense 2, Col. Héroes de Tecamac, 55764 Ojo de Agua, Méx., Mexico","latitude":19.6299781,"longitude":-99.01936409999999,"extra":{"googlePlaceId":"ChIJbw_jNwLy0YURKQP86o1NS_c","confidence":0.5,"premise":null,"subpremise":null,"neighborhood":"Colonia Héroes de Tecamac","establishment":null},"administrativeLevels":{"level1long":"Estado de México","level1short":"Méx."},"streetNumber":"2","streetName":"Calle Mexiquense","city":"Ojo de Agua","country":"Mexico","countryCode":"MX","zipcode":"55764","provider":"google"}},{"address":"Recursos Hidraulicos No 280 Col. San Pablo de las Salinas Tultitlan Estado de México","name":"La Tienda Especiál 3141-San Pablo Tultitlán","index":143,"pristine":false,"geocode":{"formattedAddress":"De Recursos Hidraulicos 280, La Chinampa, San Pablo de las Salinas, Méx., Mexico","latitude":19.6788186,"longitude":-99.1086332,"extra":{"googlePlaceId":"ElJEZSBSZWN1cnNvcyBIaWRyYXVsaWNvcyAyODAsIExhIENoaW5hbXBhLCBTYW4gUGFibG8gZGUgbGFzIFNhbGluYXMsIE3DqXguLCBNw6l4aWNv","confidence":0.9,"premise":null,"subpremise":null,"neighborhood":"La Chinampa","establishment":null},"administrativeLevels":{"level1long":"Estado de México","level1short":"Méx."},"streetNumber":"280","streetName":"De Recursos Hidraulicos","city":"San Pablo de las Salinas","country":"Mexico","countryCode":"MX","provider":"google"}},{"address":"Carretera Himno Nacional S/N","name":"La Tienda Especiál 3167-Santa Inés","index":144,"pristine":false},{"address":"Hermilio Mena S/N","name":"La Tienda Especiál 3213-La Presa","index":145,"pristine":false},{"address":"Carretera Federal Mexico-Pachuca  Colonia Sierra Hermosa  Tecamac Estado de Mexico C. P.  55749","name":"La Tienda Especiál 3214-Chinampa","index":146,"pristine":false,"geocode":{"formattedAddress":"Carr Federal Mexico Pachuca, La Esmeralda, 55770 Ojo de Agua, Méx., Mexico","latitude":19.6593442,"longitude":-99.0047288,"extra":{"googlePlaceId":"ChIJ19fT847t0YURbb6CsFxGx9Q","confidence":0.7,"premise":null,"subpremise":null,"neighborhood":"La Esmeralda","establishment":null},"administrativeLevels":{"level1long":"Estado de México","level1short":"Méx."},"streetName":"Carretera Federal Mexico Pachuca","city":"Ojo de Agua","country":"Mexico","countryCode":"MX","zipcode":"55770","provider":"google"}},{"address":"Boulevard Cuauhtemoc N° 4700, Esquina Jose Maria Velasco Colonia Villas de Ayotla","name":"La Tienda Especiál 3296-Villas de Ayotla","index":147,"pristine":false,"geocode":{"formattedAddress":"Carr. Internacional & José Maria Velasco, Ayotla, 56560 Ixtapaluca, Méx., Mexico","latitude":19.318296,"longitude":-98.9384242,"extra":{"googlePlaceId":"ElNDYXJyLiBJbnRlcm5hY2lvbmFsICYgSm9zw6kgTWFyaWEgVmVsYXNjbywgQXlvdGxhLCA1NjU2MCBJeHRhcGFsdWNhLCBNw6l4LiwgTcOpeGljbw","confidence":0.5,"premise":null,"subpremise":null,"neighborhood":"Ayotla","establishment":null},"administrativeLevels":{"level1long":"Estado de México","level1short":"Méx."},"streetName":"Carretera Internacional","city":"Ixtapaluca","country":"Mexico","countryCode":"MX","zipcode":"56560","provider":"google"}},{"address":"CARRETERA JOROBAS-TULA 02 38 MANZANA 125 NTE 1 CAMINO A SANTA TERESA, COL. STA TERESA 3 Y 3 BIS","name":"Red Barn Stores 2219-JOROBAS","index":148,"pristine":false},{"address":"Real del  Arzobispado Mz. 62, Lt. 1, U. Hab. Real de Costitlan  ","name":"La Tienda Especiál 3668-Real De Costitlan","index":149,"pristine":false},{"address":"CARRETERA MEXICO- CUAUTLA LOCALES 3A Y 3B S/N COL. HACIENDA DE SANTA BARBARA,","name":"Red Barn Stores 1107-IXTAPALUCA ","index":150,"pristine":false},{"address":"Av Gobernadores No 308 Barrio De Coaxustenco Metepec Edo De Mex","name":"La Tienda Especiál 3725-Toluca Pilares","index":151,"pristine":false,"geocode":{"formattedAddress":"Av. de los Gobernadores 308, Providencia, La-colonia-, La Providencia, 52177 Metepec, Méx., Mexico","latitude":19.2680081,"longitude":-99.5983784,"extra":{"googlePlaceId":"EmRBdi4gZGUgbG9zIEdvYmVybmFkb3JlcyAzMDgsIFByb3ZpZGVuY2lhLCBMYS1jb2xvbmlhLSwgTGEgUHJvdmlkZW5jaWEsIDUyMTc3IE1ldGVwZWMsIE3DqXguLCBNw6l4aWNv","confidence":0.9,"premise":null,"subpremise":null,"neighborhood":"Providencia, La-colonia-","establishment":null},"administrativeLevels":{"level1long":"Estado de México","level1short":"Méx."},"streetNumber":"308","streetName":"Avenida de los Gobernadores","city":"Metepec","country":"Mexico","countryCode":"MX","zipcode":"52177","provider":"google"}},{"address":"Km 41.5 Autopista México Querétaro Col. Parque Industrial la Luz","name":"La Tienda Especiál 3750-Autopista Querétaro","index":152,"pristine":false},{"address":" Guadalupe Victoria No. 1 Tlalpan Centro, D.F","name":"La Tienda Especiál 3751-Insurgentes Sur","index":153,"pristine":false,"geocode":{"formattedAddress":"Guadalupe Victoria 1, Tlalpan Centro I, 14000 Ciudad de México, CDMX, Mexico","latitude":19.2894523,"longitude":-99.17272,"extra":{"googlePlaceId":"ChIJJyAJBYoAzoUROie7zEmI56I","confidence":1,"premise":null,"subpremise":null,"neighborhood":"Tlalpan Centro I","establishment":null},"administrativeLevels":{"level1long":"Ciudad de México","level1short":"CDMX"},"streetNumber":"1","streetName":"Guadalupe Victoria","city":"Ciudad de México","country":"Mexico","countryCode":"MX","zipcode":"14000","provider":"google"}},{"address":"Av. Industria #7 Fracc. Industrial San Pablo Xalpa Tlalnepantla, Estado De Mexico","name":"La Tienda Especiál 3752-Vallejo","index":154,"pristine":false,"geocode":{"formattedAddress":"Calle Industria, Ciudad de México, CDMX, Mexico","latitude":19.4771368,"longitude":-99.18970600000002,"extra":{"googlePlaceId":"EjFDYWxsZSBJbmR1c3RyaWEsIENpdWRhZCBkZSBNw6l4aWNvLCBDRE1YLCBNw6l4aWNv","confidence":0.7,"premise":null,"subpremise":null,"neighborhood":null,"establishment":null},"administrativeLevels":{"level1long":"Ciudad de México","level1short":"CDMX"},"streetName":"Calle Industria","city":"Ciudad de México","country":"Mexico","countryCode":"MX","provider":"google"}},{"address":"Av. Central  Lt 62 AL 68 Y 118 Cd. Azteca 3ra Seccion Ecatepec Edo. Mex. CP.55280","name":"La Tienda Especiál 3753-Plaza Aragón","index":155,"pristine":false},{"address":"Antiguo Camino a San Mateo No. 20 Col. Anexo Coamilco","name":"SuperStore 3825-SAN  MATEO","index":156,"pristine":false,"geocode":{"formattedAddress":"Antiguo Camino a No. 20 Col. Anexo Coamilco, San Mateo, San Mateo Nopala, 53220 Naucalpan de Juárez, Méx., Mexico","latitude":19.4882564,"longitude":-99.2462846,"extra":{"googlePlaceId":"ChIJr2BkaxAD0oURGfpct67u0Fk","confidence":0.5,"premise":null,"subpremise":null,"neighborhood":"San Mateo Nopala","establishment":null},"administrativeLevels":{"level1long":"Estado de México","level1short":"Méx."},"streetName":"San Mateo","city":"Naucalpan de Juárez","country":"Mexico","countryCode":"MX","zipcode":"53220","provider":"google"}},{"address":"Parque Lira #147 Col. Tacubaya","name":"La Tienda Especiál 3755-Tacubaya","index":157,"pristine":false,"geocode":{"formattedAddress":"Calle Parque Lira 147, Miguel Hidalgo, Tacubaya, 11870 Ciudad de México, CDMX, Mexico","latitude":19.4041528,"longitude":-99.1876994,"extra":{"googlePlaceId":"ChIJ27uAE2D_0YUR6S_77yC30fw","confidence":0.5,"premise":null,"subpremise":null,"neighborhood":"Tacubaya","establishment":null},"administrativeLevels":{"level1long":"Ciudad de México","level1short":"CDMX"},"city":"Ciudad de México","country":"Mexico","countryCode":"MX","zipcode":"11870","provider":"google"}},{"address":"Rio Lerma #105 Fracc. La Romana Tlalnepantla, Estado De Mexico","name":"La Tienda Especiál 3756-Tlalnepantla","index":158,"pristine":false,"geocode":{"formattedAddress":"Av Río Lerma 105, Hab la Romana, 54030 Tlalnepantla, Méx., Mexico","latitude":19.5410491,"longitude":-99.1885389,"extra":{"googlePlaceId":"EkRBdiBSw61vIExlcm1hIDEwNSwgSGFiIGxhIFJvbWFuYSwgNTQwMzAgVGxhbG5lcGFudGxhLCBNw6l4LiwgTcOpeGljbw","confidence":0.9,"premise":null,"subpremise":null,"neighborhood":"Habitacional la Romana","establishment":null},"administrativeLevels":{"level1long":"Estado de México","level1short":"Méx."},"streetNumber":"105","streetName":"Avenida Río Lerma","city":"Tlalnepantla","country":"Mexico","countryCode":"MX","zipcode":"54030","provider":"google"}},{"address":"Av. Jose Loreto Favela  N. 55 Col. San Juan De Aragon  Delg. Gustavo A.Madero ","name":"La Tienda Especiál 3757-San Juan de Aragón ","index":159,"pristine":false,"geocode":{"formattedAddress":"José Loreto Fabela 55, Gustavo A. Madero, San Juan de Aragón, 07950 Ciudad de México, CDMX, Mexico","latitude":19.4653712,"longitude":-99.0820778,"extra":{"googlePlaceId":"ChIJs5CW1MD70YURQMSrVYteX6I","confidence":0.5,"premise":null,"subpremise":null,"neighborhood":"San Juan de Aragón","establishment":null},"administrativeLevels":{"level1long":"Ciudad de México","level1short":"CDMX"},"city":"Ciudad de México","country":"Mexico","countryCode":"MX","zipcode":"07950","provider":"google"}},{"address":"Serapio Rendon #117 San Rafael Cuauhtemoc, D.F.","name":"La Tienda Especiál 3759-San Rafael","index":160,"pristine":false,"geocode":{"formattedAddress":"Serapio Rendon 117, San Rafael, 06470 Ciudad de México, CDMX, Mexico","latitude":19.4337932,"longitude":-99.1607791,"extra":{"googlePlaceId":"ChIJB-FL68z40YURaz1_DCNMStU","confidence":1,"premise":null,"subpremise":null,"neighborhood":"San Rafael","establishment":null},"administrativeLevels":{"level1long":"Ciudad de México","level1short":"CDMX"},"streetNumber":"117","streetName":"Serapio Rendon","city":"Ciudad de México","country":"Mexico","countryCode":"MX","zipcode":"06470","provider":"google"}},{"address":"Av Tlahuac #4421, Iztapalapa Lomas Estrella 2a Sección, 09890 Ciudad de México, D.F.","name":"La Tienda Especiál 3760-Lomas Estrella","index":161,"pristine":false,"geocode":{"formattedAddress":"Av. Tláhuac 4421, Lomas Estrella 1ra Secc, 09890 Ciudad de México, CDMX, Mexico","latitude":19.3203456,"longitude":-99.0927948,"extra":{"googlePlaceId":"ChIJ_xXZrBkCzoURp3teJ7WDHJE","confidence":0.5,"premise":null,"subpremise":null,"neighborhood":"Lomas Estrella 1ra Sección","establishment":null},"administrativeLevels":{"level1long":"Ciudad de México","level1short":"CDMX"},"streetNumber":"4421","streetName":"Avenida Tláhuac","city":"Ciudad de México","country":"Mexico","countryCode":"MX","zipcode":"09890","provider":"google"}},{"address":"Av. Tlahuac # 1577 Colonia.  Mirasoles ","name":"La Tienda Especiál 3761-Tulyehualco","index":162,"pristine":false,"geocode":{"formattedAddress":"Centro Comercial Tulyehualco, Av. Tláhuac 1577, Iztapalapa, Colonia Mirasoles, 09910 Ciudad de México, CDMX, Mexico","latitude":19.3164602,"longitude":-99.0735042,"extra":{"googlePlaceId":"ChIJg6kLtkMCzoURMl2-J-7q9Z8","confidence":0.5,"premise":null,"subpremise":null,"neighborhood":"Colonia Mirasoles","establishment":null},"administrativeLevels":{"level1long":"Ciudad de México","level1short":"CDMX"},"city":"Ciudad de México","country":"Mexico","countryCode":"MX","zipcode":"09910","provider":"google"}},{"address":"Av. Chimalhuacan  428 y 430 Col. Benito Juarez ","name":"La Tienda Especiál 3762-Chimalhuacán","index":163,"pristine":false,"geocode":{"formattedAddress":"Av Chimalhuacán 428, Benito Juárez, 57000 Nezahualcóyotl, Méx., Mexico","latitude":19.4027458,"longitude":-99.00775639999999,"extra":{"googlePlaceId":"ChIJL2Lk4Tzj0YURv8NMLck3MXE","confidence":0.5,"premise":null,"subpremise":null,"neighborhood":"Benito Juárez","establishment":null},"administrativeLevels":{"level1long":"Estado de México","level1short":"Méx."},"streetNumber":"428","streetName":"Avenida Chimalhuacán","city":"Nezahualcóyotl","country":"Mexico","countryCode":"MX","zipcode":"57000","provider":"google"}},{"address":"Mariano Escobedo #145 Anahuac Miguel Hidalgo, D.F.","name":"La Tienda Especiál 3763-Mariano Escobedo","index":164,"pristine":false,"geocode":{"formattedAddress":"Calz. Gral. Mariano Escobedo 145, Los Manzanos, 11460 Ciudad de México, CDMX, Mexico","latitude":19.4460893,"longitude":-99.18276589999999,"extra":{"googlePlaceId":"ChIJufRtSaT40YURcFJ7tuaAnoA","confidence":1,"premise":null,"subpremise":null,"neighborhood":"Los Manzanos","establishment":null},"administrativeLevels":{"level1long":"Ciudad de México","level1short":"CDMX"},"streetNumber":"145","streetName":"Calzada General Mariano Escobedo","city":"Ciudad de México","country":"Mexico","countryCode":"MX","zipcode":"11460","provider":"google"}},{"address":"Av. Ermita Iztapalapa # 875 Col. Santa Isabel Industrial","name":"La Tienda Especiál 3764-Iztapalapa","index":165,"pristine":false,"geocode":{"formattedAddress":"Ermita Iztapalapa 875, Santa Isabel Industrial, 09820 Ciudad de México, CDMX, Mexico","latitude":19.3558016,"longitude":-99.10289399999999,"extra":{"googlePlaceId":"ElZFcm1pdGEgSXp0YXBhbGFwYSA4NzUsIFNhbnRhIElzYWJlbCBJbmR1c3RyaWFsLCAwOTgyMCBDaXVkYWQgZGUgTcOpeGljbywgQ0RNWCwgTcOpeGljbw","confidence":0.9,"premise":null,"subpremise":null,"neighborhood":"Santa Isabel Industrial","establishment":null},"administrativeLevels":{"level1long":"Ciudad de México","level1short":"CDMX"},"streetNumber":"875","streetName":"Ermita Iztapalapa","city":"Ciudad de México","country":"Mexico","countryCode":"MX","zipcode":"09820","provider":"google"}},{"address":"Av Lopez Portillo #410 Col Guadalupe Victoria Ecatepec Edo de Mex CP.55010","name":"La Tienda Especiál 3765-Ecatepec","index":166,"pristine":false,"geocode":{"formattedAddress":"Av José López Portillo 410, El Arbol, 55010 Ecatepec de Morelos, Méx., Mexico","latitude":19.6218539,"longitude":-99.07239419999999,"extra":{"googlePlaceId":"ElFBdiBKb3PDqSBMw7NwZXogUG9ydGlsbG8gNDEwLCBFbCBBcmJvbCwgNTUwMTAgRWNhdGVwZWMgZGUgTW9yZWxvcywgTcOpeC4sIE3DqXhpY28","confidence":0.9,"premise":null,"subpremise":null,"neighborhood":"El Arbol","establishment":null},"administrativeLevels":{"level1long":"Estado de México","level1short":"Méx."},"streetNumber":"410","streetName":"Avenida José López Portillo","city":"Ecatepec de Morelos","country":"Mexico","countryCode":"MX","zipcode":"55010","provider":"google"}},{"address":"Calz. La Viga #136 Colonia Lorenzo Boturini Del.  Venustiano Carranza D.F.","name":"La Tienda Especiál 3766-La Viga ","index":167,"pristine":false,"geocode":{"formattedAddress":"Calz. de la Viga 136, Lorenzo Boturini, 15820 Ciudad de México, CDMX, Mexico","latitude":19.414168,"longitude":-99.1276393,"extra":{"googlePlaceId":"ChIJM75pz8b-0YURuIZbxWV9MUM","confidence":1,"premise":null,"subpremise":null,"neighborhood":"Lorenzo Boturini","establishment":null},"administrativeLevels":{"level1long":"Ciudad de México","level1short":"CDMX"},"streetNumber":"136","streetName":"Calzada de la Viga","city":"Ciudad de México","country":"Mexico","countryCode":"MX","zipcode":"15820","provider":"google"}},{"address":"Av. Canal de Miramontes No. 7620, Col. Villa Coapa, Del. Tlalpan, D.F. ","name":"La Tienda Especiál 3768-Villa Coapa","index":168,"pristine":false,"geocode":{"formattedAddress":"Av. Canal de Miramontes 7620, Narciso Mendoza, 14390 U. Hab. Narciso Mendoza Super 4 Coapa, CDMX, Mexico","latitude":19.2917613,"longitude":-99.12493049999999,"extra":{"googlePlaceId":"ChIJfQuxmgoBzoUR5tCYuP8cRUQ","confidence":1,"premise":null,"subpremise":null,"neighborhood":"Narciso Mendoza","establishment":null},"administrativeLevels":{"level1long":"Ciudad de México","level1short":"CDMX"},"streetNumber":"7620","streetName":"Avenida Canal de Miramontes","city":"U. Hab. Narciso Mendoza Super 4 Coapa","country":"Mexico","countryCode":"MX","zipcode":"14390","provider":"google"}},{"address":"Calz. I. Zaragoza #1172 Col. Agricola Pantitlan,","name":"La Tienda Especiál 3770-Pantitlán","index":169,"pristine":false,"geocode":{"formattedAddress":"Calz. Gral. Ignacio Zaragoza 1172, Agrícola Pantitlán, 08100 Ciudad de México, CDMX, Mexico","latitude":19.4005162,"longitude":-99.06103309999999,"extra":{"googlePlaceId":"ChIJnWKyblf80YURFWQSmA14S40","confidence":0.5,"premise":null,"subpremise":null,"neighborhood":"Agrícola Pantitlán","establishment":null},"administrativeLevels":{"level1long":"Ciudad de México","level1short":"CDMX"},"streetNumber":"1172","streetName":"Calzada General Ignacio Zaragoza","city":"Ciudad de México","country":"Mexico","countryCode":"MX","zipcode":"08100","provider":"google"}},{"address":"Av. Rio Churubusco # 1130 Col. Infonavit Iztacalco Del. Iztacalco D.F","name":"La Tienda Especiál 3771-Plaza Churubusco","index":170,"pristine":false,"geocode":{"formattedAddress":"Av. Río Churubusco 1130, INFONAVIT Iztacalco, 08900 Ciudad de México, CDMX, Mexico","latitude":19.3808023,"longitude":-99.10148070000001,"extra":{"googlePlaceId":"ElVBdi4gUsOtbyBDaHVydWJ1c2NvIDExMzAsIElORk9OQVZJVCBJenRhY2FsY28sIDA4OTAwIENpdWRhZCBkZSBNw6l4aWNvLCBDRE1YLCBNw6l4aWNv","confidence":0.9,"premise":null,"subpremise":null,"neighborhood":"INFONAVIT Iztacalco","establishment":null},"administrativeLevels":{"level1long":"Ciudad de México","level1short":"CDMX"},"streetNumber":"1130","streetName":"Avenida Río Churubusco","city":"Ciudad de México","country":"Mexico","countryCode":"MX","zipcode":"08900","provider":"google"}},{"address":"Carr. Atizapan Villa Nic. Romero Atizapan Atizapan, Estado De Mexico","name":"La Tienda Especiál 3772-Plaza Atizapan","index":171,"pristine":false,"geocode":{"formattedAddress":"Carr. Atizapán Villa Nicolás Romero 30, Mexico Nuevo, 52948 Cd López Mateos, Méx., Mexico","latitude":19.571995,"longitude":-99.255842,"extra":{"googlePlaceId":"ChIJzYZ5M14c0oURabKUrrTXboM","confidence":0.5,"premise":null,"subpremise":null,"neighborhood":"Mexico Nuevo","establishment":null},"administrativeLevels":{"level1long":"Estado de México","level1short":"Méx."},"streetNumber":"30","streetName":"Carretera Atizapán Villa Nicolás Romero","city":"Ciudad López Mateos","country":"Mexico","countryCode":"MX","zipcode":"52948","provider":"google"}},{"address":"Venturina  #354 Col. Estrella","name":"La Tienda Especiál 3774-Ferrocarril Hidalgo","index":172,"pristine":false},{"address":"Carmelo Perez No. 774 Benito Juarez, Cd. Nezahualcoyotl, Estado de México","name":"La Tienda Especiál 3775-La Aurora","index":173,"pristine":false,"geocode":{"formattedAddress":"Av. Carmelo Pérez 774, Benito Juárez, 57000 Nezahualcóyotl, Méx., Mexico","latitude":19.4068265,"longitude":-98.99361840000002,"extra":{"googlePlaceId":"ChIJHVmN4Tzj0YURlM5eCs9r5O4","confidence":1,"premise":null,"subpremise":null,"neighborhood":"Benito Juárez","establishment":null},"administrativeLevels":{"level1long":"Estado de México","level1short":"Méx."},"streetNumber":"774","streetName":"Avenida Carmelo Pérez","city":"Nezahualcóyotl","country":"Mexico","countryCode":"MX","zipcode":"57000","provider":"google"}},{"address":"Indio Triste No 47 Metropolitana 2da seccion,Netzahualcoyotl.Edo de Mexico","name":"La Tienda Especiál 3776-Sor Juana","index":174,"pristine":false,"geocode":{"formattedAddress":"Indio Triste 47, Metropolitana 2da Secc, 57740 Nezahualcóyotl, Méx., Mexico","latitude":19.3904247,"longitude":-99.0287536,"extra":{"googlePlaceId":"Ek5JbmRpbyBUcmlzdGUgNDcsIE1ldHJvcG9saXRhbmEgMmRhIFNlY2MsIDU3NzQwIE5lemFodWFsY8OzeW90bCwgTcOpeC4sIE3DqXhpY28","confidence":0.9,"premise":null,"subpremise":null,"neighborhood":"Metropolitana 2da Sección","establishment":null},"administrativeLevels":{"level1long":"Estado de México","level1short":"Méx."},"streetNumber":"47","streetName":"Indio Triste","city":"Nezahualcóyotl","country":"Mexico","countryCode":"MX","zipcode":"57740","provider":"google"}},{"address":"Valle  Santiago  N° 102  Col. Valle  de  Aragon ","name":"La Tienda Especiál 3777-Valle de Aragón ","index":175,"pristine":false,"geocode":{"formattedAddress":"Av. Valle de Santiago 102, Granjas Valle de Guadalupe, 55280 Ecatepec de Morelos, Méx., Mexico","latitude":19.5040141,"longitude":-99.0491512,"extra":{"googlePlaceId":"ChIJzWvWt_P60YURbDaML36lI8c","confidence":1,"premise":null,"subpremise":null,"neighborhood":"Granjas Valle de Guadalupe","establishment":null},"administrativeLevels":{"level1long":"Estado de México","level1short":"Méx."},"streetNumber":"102","streetName":"Avenida Valle de Santiago","city":"Ecatepec de Morelos","country":"Mexico","countryCode":"MX","zipcode":"55280","provider":"google"}},{"address":"AV. CENTRAL","name":"Red Barn Stores 5765-LAS AMERICAS ","index":176,"pristine":false,"geocode":{"formattedAddress":"Avenida Central, Lady Lake, FL 32159, USA","latitude":28.9371365,"longitude":-81.9489465,"extra":{"googlePlaceId":"ChIJqTcvzIbG54gR4E7YGiZe9iU","confidence":0.7,"premise":null,"subpremise":null,"neighborhood":null,"establishment":null},"administrativeLevels":{"level2long":"Lake County","level2short":"Lake County","level1long":"Florida","level1short":"FL"},"streetName":"Avenida Central","city":"Lady Lake","country":"United States","countryCode":"US","zipcode":"32159","provider":"google"}},{"address":"Prolongación Division del Norte 5333, Colonia Potrero de San Bernardino,","name":"La Tienda Especiál 3778-Xochimilco","index":177,"pristine":false,"geocode":{"formattedAddress":"Prol. División del Nte. 5333, Potrero de San Bernardino, 16030 Ciudad de México, CDMX, Mexico","latitude":19.267296,"longitude":-99.1162975,"extra":{"googlePlaceId":"ChIJueaMRkIBzoUR007B2Lw3tG4","confidence":1,"premise":null,"subpremise":null,"neighborhood":"Potrero de San Bernardino","establishment":null},"administrativeLevels":{"level1long":"Ciudad de México","level1short":"CDMX"},"streetNumber":"5333","streetName":"Prolongación División del Norte","city":"Ciudad de México","country":"Mexico","countryCode":"MX","zipcode":"16030","provider":"google"}},{"address":"Av. Centenario # 394 Col.  Merced Gomez, Del  Alvaro Obregon D.F.","name":"La Tienda Especiál 3782-Centenario","index":178,"pristine":false,"geocode":{"formattedAddress":"Av Centenario 394, Merced Gómez, 01600 Ciudad de México, CDMX, Mexico","latitude":19.3659797,"longitude":-99.2091643,"extra":{"googlePlaceId":"ChIJTYeo4TgA0oURBPpe51InHEM","confidence":1,"premise":null,"subpremise":null,"neighborhood":"Merced Gómez","establishment":null},"administrativeLevels":{"level1long":"Ciudad de México","level1short":"CDMX"},"streetNumber":"394","streetName":"Avenida Centenario","city":"Ciudad de México","country":"Mexico","countryCode":"MX","zipcode":"01600","provider":"google"}},{"address":"Carr. Mex-Pachuca #3277 Km. 17.5, col. Tulpetlac, Ecatepec, Estado de México,","name":"La Tienda Especiál 3783-Santa Clara ","index":179,"pristine":false,"geocode":{"formattedAddress":"3277, México Pachuca Avenida Nacional 17, La Veleta, 55055 Ecatepec de Morelos, Méx., Mexico","latitude":19.6140796,"longitude":-99.0164018,"extra":{"googlePlaceId":"El8zMjc3LCBNw6l4aWNvIFBhY2h1Y2EgQXZlbmlkYSBOYWNpb25hbCAxNywgTGEgVmVsZXRhLCA1NTA1NSBFY2F0ZXBlYyBkZSBNb3JlbG9zLCBNw6l4LiwgTcOpeGljbw","confidence":1,"premise":null,"subpremise":"3277","neighborhood":"La Veleta","establishment":null},"administrativeLevels":{"level1long":"Estado de México","level1short":"Méx."},"streetNumber":"17","streetName":"México Pachuca Avenida Nacional","city":"Ecatepec de Morelos","country":"Mexico","countryCode":"MX","zipcode":"55055","provider":"google"}},{"address":"Av. 1 Mayo Y Rio Hondo #200 Col. San Andres Atoto  Muni","name":"La Tienda Especiál 3784-1° de Mayo","index":180,"pristine":false},{"address":"Camino Real A Toluca # 644 Colonia Cuevitas","name":"La Tienda Especiál 3786-Santa Fe","index":181,"pristine":false},{"address":"AV . REVOLUCION 1560","name":"Red Barn Stores 3503-ECATEPEC CENTRO","index":182,"pristine":false,"geocode":{"formattedAddress":"Av. Revolución 1560, San Ángel, 01000 Ciudad de México, CDMX, Mexico","latitude":19.3511652,"longitude":-99.1903991,"extra":{"googlePlaceId":"EkhBdi4gUmV2b2x1Y2nDs24gMTU2MCwgU2FuIMOBbmdlbCwgMDEwMDAgQ2l1ZGFkIGRlIE3DqXhpY28sIENETVgsIE3DqXhpY28","confidence":0.9,"premise":null,"subpremise":null,"neighborhood":"San Ángel","establishment":null},"administrativeLevels":{"level1long":"Ciudad de México","level1short":"CDMX"},"streetNumber":"1560","streetName":"Avenida Revolución","city":"Ciudad de México","country":"Mexico","countryCode":"MX","zipcode":"01000","provider":"google"}},{"address":"Av. Paseo de la Constitución s/n L-1 Mz. C-34 B Col Centro Urbano,","name":"La Tienda Especiál 3787-Cuautitlán","index":183,"pristine":false},{"address":"Vía López Portillo #149 Fuentes del Valle Tultitlán Edo de Mex CP.54910","name":"La Tienda Especiál 3791-Fuentes del Valle","index":184,"pristine":false,"geocode":{"formattedAddress":"Av José López Portillo 149, Fuentes del Valle, 54910 Tultitlán de Mariano Escobedo, Méx., Mexico","latitude":19.6290873,"longitude":-99.1394679,"extra":{"googlePlaceId":"ChIJ0XCgoi700YUR9cUlGhwX3qs","confidence":1,"premise":null,"subpremise":null,"neighborhood":"Fuentes del Valle","establishment":null},"administrativeLevels":{"level1long":"Estado de México","level1short":"Méx."},"streetNumber":"149","streetName":"Avenida José López Portillo","city":"Tultitlán de Mariano Escobedo","country":"Mexico","countryCode":"MX","zipcode":"54910","provider":"google"}},{"address":"Carretera Mexico Laredo km 8 Colonia La Laguna","name":"La Tienda Especiál 3792-San Juanico","index":185,"pristine":false},{"address":"Calle Prolongación 16 De Septiembre S/N Colonia San Pablo Muni","name":"La Tienda Especiál 3795-Texcoco","index":186,"pristine":false},{"address":"Anillo Periferico 1911 Col. Ejercito Constitucionalista","name":"La Tienda Especiál 3797-Cabeza de Juárez","index":187,"pristine":false,"geocode":{"formattedAddress":"Anillo Perif. Blvd. Adolfo Ruiz Cortines 1911, Chinam Pac de Juárez, 09208 Ciudad de México, CDMX, Mexico","latitude":19.3788509,"longitude":-99.05953790000001,"extra":{"googlePlaceId":"ChIJz1GYfKj90YURDNiYgnScxsY","confidence":0.5,"premise":null,"subpremise":null,"neighborhood":"Chinam Pac de Juárez","establishment":null},"administrativeLevels":{"level1long":"Ciudad de México","level1short":"CDMX"},"streetNumber":"1911","streetName":"Anillo Periférico Boulevard Adolfo Ruiz Cortines","city":"Ciudad de México","country":"Mexico","countryCode":"MX","zipcode":"09208","provider":"google"}},{"address":"Calz. Sta Cecilia #17 Pueblo Sta Cecilia Tlalnepantla, Estado De Mexico","name":"La Tienda Especiál 3798-Santa Cecilia","index":188,"pristine":false,"geocode":{"formattedAddress":"Calz. Sta. Cecilia 17, Sta Cecilia Acatitlan, 54130 Ciudad de México, Méx., Mexico","latitude":19.5534766,"longitude":-99.1770214,"extra":{"googlePlaceId":"ChIJD0ZKE8P30YURtGphDnos4Vs","confidence":1,"premise":null,"subpremise":null,"neighborhood":"Santa Cecilia Acatitlan","establishment":null},"administrativeLevels":{"level1long":"Estado de México","level1short":"Méx."},"streetNumber":"17","streetName":"Calzada Santa Cecilia","city":"Ciudad de México","country":"Mexico","countryCode":"MX","zipcode":"54130","provider":"google"}},{"address":"Av. Ermita Iztapalapa No.2001 Col. Los Angeles Del. Iztapalapa","name":"La Tienda Especiál 3799-Ángeles Iztapalapa","index":189,"pristine":false,"geocode":{"formattedAddress":"Ermita Iztapalapa 2001, Los Ángeles, 09830 Ciudad de México, CDMX, Mexico","latitude":19.348234,"longitude":-99.0694481,"extra":{"googlePlaceId":"ChIJgyyiNY_90YURT4YLePiOJ_8","confidence":1,"premise":null,"subpremise":null,"neighborhood":"Los Ángeles","establishment":null},"administrativeLevels":{"level1long":"Ciudad de México","level1short":"CDMX"},"streetNumber":"2001","streetName":"Ermita Iztapalapa","city":"Ciudad de México","country":"Mexico","countryCode":"MX","zipcode":"09830","provider":"google"}},{"address":"Av. Observatorio #457 Col. Las Americas Del.  Alvaro Obregon D.F.","name":"La Tienda Especiál 3803-Observatorio","index":190,"pristine":false,"geocode":{"formattedAddress":"Av Observatorio 457, Hidalgo, 01120 Hidalgo, CDMX, Mexico","latitude":19.4000103,"longitude":-99.20934919999999,"extra":{"googlePlaceId":"ChIJa_QZ1MAB0oURcqoAKO-uSkQ","confidence":1,"premise":null,"subpremise":null,"neighborhood":"Hidalgo","establishment":null},"administrativeLevels":{"level1long":"Ciudad de México","level1short":"CDMX"},"streetNumber":"457","streetName":"Avenida Observatorio","city":"Hidalgo","country":"Mexico","countryCode":"MX","zipcode":"01120","provider":"google"}},{"address":"Av. Sta Lucia # 185 Col. Alfonso XIII Del.  Alvaro Obregon D.F.","name":"La Tienda Especiál 3805-Santa Lucía","index":191,"pristine":false,"geocode":{"formattedAddress":"Av. Sta. Lucia 185, Alfonso XIII, 01400 Ciudad de México, CDMX, Mexico","latitude":19.3718495,"longitude":-99.21238699999999,"extra":{"googlePlaceId":"ChIJn8ZMGkgA0oURTHF474pO_eY","confidence":1,"premise":null,"subpremise":null,"neighborhood":"Alfonso XIII","establishment":null},"administrativeLevels":{"level1long":"Ciudad de México","level1short":"CDMX"},"streetNumber":"185","streetName":"Avenida Santa Lucia","city":"Ciudad de México","country":"Mexico","countryCode":"MX","zipcode":"01400","provider":"google"}},{"address":"Bolivar #190 Obrera Cuauhtemoc, D.F.","name":"La Tienda Especiál 3808-Bolivar","index":192,"pristine":false,"geocode":{"formattedAddress":"Calle Bolivar 190, Cuauhtémoc, 06000 Ciudad de México, CDMX, Mexico","latitude":19.4221767,"longitude":-99.13998989999999,"extra":{"googlePlaceId":"ChIJ55nnstD-0YURMe0g8NA2ojM","confidence":1,"premise":null,"subpremise":null,"neighborhood":"Cuauhtémoc","establishment":null},"administrativeLevels":{"level1long":"Ciudad de México","level1short":"CDMX"},"streetNumber":"190","streetName":"Calle Bolivar","city":"Ciudad de México","country":"Mexico","countryCode":"MX","zipcode":"06000","provider":"google"}},{"address":"Calzada Ignacio Zaragoza No. 1527, Col. Tepalcates, Iztapalapa, D.F. ,","name":"La Tienda Especiál 3860-Zaragoza","index":193,"pristine":false,"geocode":{"formattedAddress":"Calz. Ignacio Zaragoza 1527, Tepalcates, 09210 Ciudad de México, CDMX, Mexico","latitude":19.392762,"longitude":-99.0508017,"extra":{"googlePlaceId":"ChIJYaO90v380YUROScEDrUMZl0","confidence":1,"premise":null,"subpremise":null,"neighborhood":"Tepalcates","establishment":null},"administrativeLevels":{"level1long":"Ciudad de México","level1short":"CDMX"},"streetNumber":"1527","streetName":"Calzada Ignacio Zaragoza","city":"Ciudad de México","country":"Mexico","countryCode":"MX","zipcode":"09210","provider":"google"}},{"address":"Autopista México Qro. Km. 37.10","name":"La Tienda Especiál 3871-Plaza Cuautitlán","index":194,"pristine":false,"geocode":{"formattedAddress":"Autopista México - Querétaro 10, Hab San Rafael, 54120 Mexico City, Méx., Mexico","latitude":19.5574858,"longitude":-99.1876952,"extra":{"googlePlaceId":"ChIJE7GwV9j30YUR4XpSmsHOT74","confidence":1,"premise":null,"subpremise":null,"neighborhood":"Habit. San Rafael","establishment":null},"administrativeLevels":{"level1long":"Estado de México","level1short":"Méx."},"streetNumber":"10","streetName":"Autopista México - Querétaro","city":"Mexico City","country":"Mexico","countryCode":"MX","zipcode":"54120","provider":"google"}},{"address":"Av. Aztecas no. 221 Col. Los Reyes Del. Coyoacan","name":"La Tienda Especiál 3874-Cantil","index":195,"pristine":false,"geocode":{"formattedAddress":"Av. Aztecas 221, Los Reyes, 04330 Ciudad de México, CDMX, Mexico","latitude":19.3298438,"longitude":-99.154291,"extra":{"googlePlaceId":"ChIJZX2jBC8AzoUR_5QXyyi8VTU","confidence":1,"premise":null,"subpremise":null,"neighborhood":"Los Reyes","establishment":null},"administrativeLevels":{"level1long":"Ciudad de México","level1short":"CDMX"},"streetNumber":"221","streetName":"Avenida Aztecas","city":"Ciudad de México","country":"Mexico","countryCode":"MX","zipcode":"04330","provider":"google"}},{"address":"Carr. Melchor Ocampo No.1  Barrio Tlaltepan.","name":"La Tienda Especiál 3883-Melchor Ocampo","index":196,"pristine":false,"geocode":{"formattedAddress":"Melchor Ocampo 1, Los Olivos, 54800 Cuautitlán, Méx., Mexico","latitude":19.6717205,"longitude":-99.1727529,"extra":{"googlePlaceId":"ChIJ1YmXGHT10YURnNdVzzygXpo","confidence":1,"premise":null,"subpremise":null,"neighborhood":"Los Olivos","establishment":null},"administrativeLevels":{"level1long":"Estado de México","level1short":"Méx."},"streetNumber":"1","streetName":"Melchor Ocampo","city":"Cuautitlán","country":"Mexico","countryCode":"MX","zipcode":"54800","provider":"google"}},{"address":"Av. Vicente Guerrero N° 25 Colonia Ejidal Chalco Centro","name":"La Tienda Especiál 3884-Chalco 2000","index":197,"pristine":false,"geocode":{"formattedAddress":"Calle Vicente Guerrero 25, Chalco Centro, 56600 Chalco de Díaz Covarrubias, Méx., Mexico","latitude":19.2640468,"longitude":-98.89682889999999,"extra":{"googlePlaceId":"ChIJ3x7vys4ezoURU13mJsqftvI","confidence":1,"premise":null,"subpremise":null,"neighborhood":"Chalco Centro","establishment":null},"administrativeLevels":{"level1long":"Estado de México","level1short":"Méx."},"streetNumber":"25","streetName":"Calle Vicente Guerrero","city":"Chalco de Díaz Covarrubias","country":"Mexico","countryCode":"MX","zipcode":"56600","provider":"google"}},{"address":"Av. Vía Morelos S/N, Col. Alcahuacan Jajalpa","name":"La Tienda Especiál 3888-Vía Morelos","index":198,"pristine":false,"geocode":{"formattedAddress":"Cda. José Ma. Morelos, San Juan Alcahuacan, 55040 Ecatepec de Morelos, Méx., Mexico","latitude":19.600507,"longitude":-99.0380009,"extra":{"googlePlaceId":"ChIJcQMiD7_x0YURyvO4t2NFJaE","confidence":0.7,"premise":null,"subpremise":null,"neighborhood":"San Juan Alcahuacan","establishment":null},"administrativeLevels":{"level1long":"Estado de México","level1short":"Méx."},"streetName":"Cerrada José Ma. Morelos","city":"Ecatepec de Morelos","country":"Mexico","countryCode":"MX","zipcode":"55040","provider":"google"}},{"address":"Km. 17.5 Carr. Lib. Mex-Puebla, Col. Emiliano Zapata, Los Reyes La Paz, Estado de México,","name":"La Tienda Especiál 3891-Los Reyes","index":199,"pristine":false,"geocode":{"formattedAddress":"Autopista México - Puebla 5, Santa Catarina Yecahuitzotl, Sta Catarina, 13120 Ciudad de México, CDMX, Mexico","latitude":19.3250608,"longitude":-98.9601759,"extra":{"googlePlaceId":"ChIJK8sNY5gdzoURMlDmjZdrde8","confidence":1,"premise":null,"subpremise":null,"neighborhood":"Santa Catarina Yecahuitzotl","establishment":null},"administrativeLevels":{"level1long":"Ciudad de México","level1short":"CDMX"},"streetNumber":"5","streetName":"Autopista México - Puebla","city":"Ciudad de México","country":"Mexico","countryCode":"MX","zipcode":"13120","provider":"google"}},{"address":"Av. Hank Gonzalez No. 104-106","name":"La Tienda Especiál 3892-Av Central","index":200,"pristine":false,"geocode":{"formattedAddress":"104, Av. Carlos Hank González 106, Cd Azteca 2da Secc, 55120 Ecatepec de Morelos, Méx., Mexico","latitude":19.5423317,"longitude":-99.0247312,"extra":{"googlePlaceId":"EmExMDQsIEF2LiBDYXJsb3MgSGFuayBHb256w6FsZXogMTA2LCBDZCBBenRlY2EgMmRhIFNlY2MsIDU1MTIwIEVjYXRlcGVjIGRlIE1vcmVsb3MsIE3DqXguLCBNw6l4aWNv","confidence":1,"premise":null,"subpremise":"104","neighborhood":"Ciudad Azteca 2da Sección","establishment":null},"administrativeLevels":{"level1long":"Estado de México","level1short":"Méx."},"streetNumber":"106","streetName":"Avenida Carlos Hank González","city":"Ecatepec de Morelos","country":"Mexico","countryCode":"MX","zipcode":"55120","provider":"google"}},{"address":"Calzada de la Virgen No. 2990, Colonia UCTM Culhuacan CP.04480 México D.F.","name":"La Tienda Especiál 3897-La Virgen","index":201,"pristine":false,"geocode":{"formattedAddress":"7 de La Virgen, Culhuacan CTM VI, 04480 Ciudad de México, CDMX, Mexico","latitude":19.3212691,"longitude":-99.1144619,"extra":{"googlePlaceId":"ChIJP93dxe0BzoUR-cE3S4uOTQ0","confidence":0.7,"premise":null,"subpremise":null,"neighborhood":"Culhuacan CTM VI","establishment":null},"administrativeLevels":{"level1long":"Ciudad de México","level1short":"CDMX"},"streetName":"7 de La Virgen","city":"Ciudad de México","country":"Mexico","countryCode":"MX","zipcode":"04480","provider":"google"}},{"address":"CARRETERA ZUMPANGO LOS REYES S/N","name":"Red Barn Stores 1724-LOS REYES ZUMPANGO","index":202,"pristine":false,"geocode":{"formattedAddress":"Carretera Zumpago Reyes o Ampliación Av. Hidalgo KM 2 S/N, San Lorenzo, 55604 Zumpango de Ocampo, Méx., Mexico","latitude":19.7925742,"longitude":-99.07940760000001,"extra":{"googlePlaceId":"ChIJsYNbkRWM0YURAHeJEjLeJOk","confidence":0.5,"premise":null,"subpremise":null,"neighborhood":"San Lorenzo","establishment":null},"administrativeLevels":{"level1long":"Estado de México","level1short":"Méx."},"city":"Zumpango de Ocampo","country":"Mexico","countryCode":"MX","zipcode":"55604","provider":"google"}},{"address":"Calle Palomas Mz 1 Lt 1 La Veleta Ecatepec Edo de Mex CP.55000","name":"La Tienda Especiál 3910-Palomas","index":203,"pristine":false,"geocode":{"formattedAddress":"Entre la calle Faisanes y calle M. 1C.11, Av. de las Palomas, La Veleta, 55055 Ecatepec de Morelos, Méx., Mexico","latitude":19.6095332,"longitude":-99.01778379999999,"extra":{"googlePlaceId":"ChIJly8TUOHx0YURRmtg4YdabQk","confidence":0.5,"premise":null,"subpremise":null,"neighborhood":"La Veleta","establishment":null},"administrativeLevels":{"level1long":"Estado de México","level1short":"Méx."},"streetName":"Avenida de las Palomas","city":"Ecatepec de Morelos","country":"Mexico","countryCode":"MX","zipcode":"55055","provider":"google"}},{"address":"BLVD. VALLE DE SAN PEDRO LOTE 1A, ESQUINA AV. LEONARDO MARTINEZ, COL. SAN FRANCISCO CUAUTIQUIXCO","name":"Red Barn Stores 3176-OJO DE AGUA TECAMAC","index":204,"pristine":false},{"address":"Calz. Ermita Iztapalapa no. 3409 col. Santa Maria Aztahucan ","name":"La Tienda Especiál 3916-Iztapalapa Norte","index":205,"pristine":false,"geocode":{"formattedAddress":"Ermita Iztapalapa 3409, Santa María Aztahuacan, 09640 Ciudad de México, CDMX, Mexico","latitude":19.3481892,"longitude":-99.0187904,"extra":{"googlePlaceId":"EldFcm1pdGEgSXp0YXBhbGFwYSAzNDA5LCBTYW50YSBNYXLDrWEgQXp0YWh1YWNhbiwgMDk2NDAgQ2l1ZGFkIGRlIE3DqXhpY28sIENETVgsIE3DqXhpY28","confidence":0.9,"premise":null,"subpremise":null,"neighborhood":"Santa María Aztahuacan","establishment":null},"administrativeLevels":{"level1long":"Ciudad de México","level1short":"CDMX"},"streetNumber":"3409","streetName":"Ermita Iztapalapa","city":"Ciudad de México","country":"Mexico","countryCode":"MX","zipcode":"09640","provider":"google"}},{"address":"Av. Jorge Jiménez Cantú, lote 2, manzana s/n, Colonia Ex - Hacienda San Miguel  CP.54710","name":"La Tienda Especiál 3924-Cofradías","index":206,"pristine":false},{"address":"Heriberto Enríquez N° 1037","name":"La Tienda Especiál 4017-Toluca Aztecas","index":207,"pristine":false,"geocode":{"formattedAddress":"Av. Prof. Heriberto Enríquez 4 Sur 1037, Amp Lázaro Cárdenas, 50180 Toluca de Lerdo, Méx., Mexico","latitude":19.2644062,"longitude":-99.6453682,"extra":{"googlePlaceId":"ChIJlVS-9XeJzYURKdH9Ad7efhE","confidence":1,"premise":null,"subpremise":null,"neighborhood":"Ampliación Lázaro Cárdenas","establishment":null},"administrativeLevels":{"level1long":"Estado de México","level1short":"Méx."},"streetNumber":"1037","streetName":"Avenida Profesor Heriberto Enríquez 4 Sur","city":"Toluca de Lerdo","country":"Mexico","countryCode":"MX","zipcode":"50180","provider":"google"}},{"address":"Carretera Mexico-Pachuca s/n esquina privada av nacional  Santo Tomas chiconautla Ecatepec de Morelos Edo de Mex CP.55068","name":"La Tienda Especiál 4029-Av. Nacional","index":208,"pristine":false},{"address":"Av. Arca de Noe #150 Col. Acuitlapilco Chimalhuacan, Estado de México","name":"La Tienda Especiál 4128-Arca De Noé","index":209,"pristine":false,"geocode":{"formattedAddress":"Av Arca de Noe 150, San Miguel, 56335 Chimalhuacán, Méx., Mexico","latitude":19.4215911,"longitude":-98.9307243,"extra":{"googlePlaceId":"EkNBdiBBcmNhIGRlIE5vZSAxNTAsIFNhbiBNaWd1ZWwsIDU2MzM1IENoaW1hbGh1YWPDoW4sIE3DqXguLCBNw6l4aWNv","confidence":0.9,"premise":null,"subpremise":null,"neighborhood":"San Miguel","establishment":null},"administrativeLevels":{"level1long":"Estado de México","level1short":"Méx."},"streetNumber":"150","streetName":"Avenida Arca de Noe","city":"Chimalhuacán","country":"Mexico","countryCode":"MX","zipcode":"56335","provider":"google"}},{"address":"Paseo De Los Sauces N° 5","name":"La Tienda Especiál 4198-El Tenayo","index":210,"pristine":false,"geocode":{"formattedAddress":"Boulevard Huejotzingo-Aeropuerto Nº 10, Cuarto Barrio Santiago Mextla, 74169 Huejotzingo, Pue., Mexico","latitude":19.1780367,"longitude":-98.3900249,"extra":{"googlePlaceId":"ChIJn4-oMATOz4UR4Uf15giJfV0","confidence":0.5,"premise":null,"subpremise":null,"neighborhood":"Cuarto Barrio Santiago Mextla","establishment":null},"administrativeLevels":{"level1long":"Puebla","level1short":"Pue."},"city":"Huejotzingo","country":"Mexico","countryCode":"MX","zipcode":"74169","provider":"google"}},{"address":"Carretera Federal México- Cuautla KM 30.5 , Fracc. Hacienda de Santa Barbara, Ixtapaluca, Estado de Mexico,","name":"La Tienda Especiál 4541-Ixtapaluca","index":211,"pristine":false},{"address":"Carretera federal Mexico-Pachuca # 65 Esmeralda Tecamac Edo de Mex","name":"La Tienda Especiál 4558-Tecamac","index":212,"pristine":false,"geocode":{"formattedAddress":"Carr Federal Mexico Pachuca, La Esmeralda, 55770 Ojo de Agua, Méx., Mexico","latitude":19.6593442,"longitude":-99.0047288,"extra":{"googlePlaceId":"ChIJ19fT847t0YURbb6CsFxGx9Q","confidence":0.7,"premise":null,"subpremise":null,"neighborhood":"La Esmeralda","establishment":null},"administrativeLevels":{"level1long":"Estado de México","level1short":"Méx."},"streetName":"Carretera Federal Mexico Pachuca","city":"Ojo de Agua","country":"Mexico","countryCode":"MX","zipcode":"55770","provider":"google"}},{"address":" Carretera México - Texcoco K.m. 29.5 s/n Col. 2 de Marzo Sn Vicente Chicoloapan","name":"La Tienda Especiál 5730-Chicoloapan","index":213,"pristine":false,"geocode":{"formattedAddress":"Carretera Federal México-Texcoco 29, San Vicente, 56377 Chicoloapan de Juárez, Méx., Mexico","latitude":19.4151071,"longitude":-98.91853809999999,"extra":{"googlePlaceId":"El9DYXJyZXRlcmEgRmVkZXJhbCBNw6l4aWNvLVRleGNvY28gMjksIFNhbiBWaWNlbnRlLCA1NjM3NyBDaGljb2xvYXBhbiBkZSBKdcOhcmV6LCBNw6l4LiwgTcOpeGljbw","confidence":0.9,"premise":null,"subpremise":null,"neighborhood":"San Vicente","establishment":null},"administrativeLevels":{"level1long":"Estado de México","level1short":"Méx."},"streetNumber":"29","streetName":"Carretera Federal México-Texcoco","city":"Chicoloapan de Juárez","country":"Mexico","countryCode":"MX","zipcode":"56377","provider":"google"}},{"address":"Av. Nezahualcoyolt  No.172 Col Cabecera Muni","name":"La Tienda Especiál 5733-Plaza Chimalhuacán","index":214,"pristine":false},{"address":"Vía José López Portillo No. 12  Col. San Francisco Chilpan Tultitlan, Estado De Mexico","name":"La Tienda Especiál 5768-Cd Labor","index":215,"pristine":false,"geocode":{"formattedAddress":"Av José López Portillo 12, El Fresno, Buenavista, Méx., Mexico","latitude":19.6195904,"longitude":-99.1722391,"extra":{"googlePlaceId":"EkJBdiBKb3PDqSBMw7NwZXogUG9ydGlsbG8gMTIsIEVsIEZyZXNubywgQnVlbmF2aXN0YSwgTcOpeC4sIE3DqXhpY28","confidence":0.9,"premise":null,"subpremise":null,"neighborhood":"El Fresno","establishment":null},"administrativeLevels":{"level1long":"Estado de México","level1short":"Méx."},"streetNumber":"12","streetName":"Avenida José López Portillo","city":"Buenavista","country":"Mexico","countryCode":"MX","provider":"google"}},{"address":"Calz. Acoxpa No. 438,","name":"SuperStore 1053-ACOXPA","index":216,"pristine":false,"geocode":{"formattedAddress":"Calz Acoxpa 438, Equipamiento Fábrica Fisisa, Ciudad de México, CDMX, Mexico","latitude":19.2996947,"longitude":-99.137115,"extra":{"googlePlaceId":"ChIJP0VY4K4BzoURUxOUaTe7BLo","confidence":1,"premise":null,"subpremise":null,"neighborhood":"Equipamiento Fábrica Fisisa","establishment":null},"administrativeLevels":{"level1long":"Ciudad de México","level1short":"CDMX"},"streetNumber":"438","streetName":"Calzada Acoxpa","city":"Ciudad de México","country":"Mexico","countryCode":"MX","provider":"google"}},{"address":"Av. Cerro de Las Torres No. 229 Col. Campestre Churubusco","name":"SuperStore 3813-CHURUBUSCO","index":217,"pristine":false,"geocode":{"formattedAddress":"Av. Cerro de las Torres 229, Campestre Churubusco, 04200 Ciudad de México, CDMX, Mexico","latitude":19.3448682,"longitude":-99.1351834,"extra":{"googlePlaceId":"ChIJ3QAqajv-0YURgp7GJcanXes","confidence":1,"premise":null,"subpremise":null,"neighborhood":"Campestre Churubusco","establishment":null},"administrativeLevels":{"level1long":"Ciudad de México","level1short":"CDMX"},"streetNumber":"229","streetName":"Avenida Cerro de las Torres","city":"Ciudad de México","country":"Mexico","countryCode":"MX","zipcode":"04200","provider":"google"}},{"address":"Av. ","name":"SuperStore 3836-COPILCO","index":218,"pristine":false,"geocode":{"formattedAddress":"Province of Avellino, Italy","latitude":40.996451,"longitude":15.1258955,"extra":{"googlePlaceId":"ChIJW3l40s-AORMRYIFimR_hCQM","confidence":0.5,"premise":null,"subpremise":null,"neighborhood":null,"establishment":null},"administrativeLevels":{"level2long":"Province of Avellino","level2short":"AV","level1long":"Campania","level1short":"Campania"},"country":"Italy","countryCode":"IT","provider":"google"}},{"address":"Miguel A. De Quevedo 870 Col. Con","name":"SuperStore 3831-COYOACAN","index":219,"pristine":false},{"address":"División del Nte.  No. 3651 Col. Sn. Pablo Tepetlapa","name":"SuperStore 3843-DIVISIÓN DEL NORTE","index":220,"pristine":false,"geocode":{"formattedAddress":"Av. Division del Nte. 3651, San Pablo Tepetlapa, 04620 Ciudad de México, CDMX, Mexico","latitude":19.3208253,"longitude":-99.1392372,"extra":{"googlePlaceId":"ChIJtRo9TckBzoURT-pP1PV7FcE","confidence":1,"premise":null,"subpremise":null,"neighborhood":"San Pablo Tepetlapa","establishment":null},"administrativeLevels":{"level1long":"Ciudad de México","level1short":"CDMX"},"streetNumber":"3651","streetName":"Avenida Division del Norte","city":"Ciudad de México","country":"Mexico","countryCode":"MX","zipcode":"04620","provider":"google"}},{"address":"Félix Cuevas #374 Col. Tlacoquemecatl","name":"SuperStore 2766-FELIX CUEVAS","index":221,"pristine":false,"geocode":{"formattedAddress":"Félix Cuevas 374, Tlacoquemecatl del Valle, 03200 Ciudad de México, CDMX, Mexico","latitude":19.372889,"longitude":-99.1728572,"extra":{"googlePlaceId":"ChIJHc0L_Jn_0YUR39fm6BO4-JM","confidence":1,"premise":null,"subpremise":null,"neighborhood":"Tlacoquemecatl del Valle","establishment":null},"administrativeLevels":{"level1long":"Ciudad de México","level1short":"CDMX"},"streetNumber":"374","streetName":"Félix Cuevas","city":"Ciudad de México","country":"Mexico","countryCode":"MX","zipcode":"03200","provider":"google"}},{"address":"Rancho Sn. Lorenzo No. 6 Col. Girasoles de Valle","name":"SuperStore 3839-GIRASOLES","index":222,"pristine":false,"geocode":{"formattedAddress":"Rancho San Lorenzo 6, Coyoacan, Girasoles, 04920 Ciudad de México, CDMX, Mexico","latitude":19.31053,"longitude":-99.124771,"extra":{"googlePlaceId":"ChIJo8qXDL4BzoURS6ZYnGoWIwo","confidence":0.5,"premise":null,"subpremise":null,"neighborhood":"Girasoles","establishment":null},"administrativeLevels":{"level1long":"Ciudad de México","level1short":"CDMX"},"city":"Ciudad de México","country":"Mexico","countryCode":"MX","zipcode":"04920","provider":"google"}},{"address":"Mayorazgo No130 Col. Xoco Del. Benito Juarez , México  D.F.","name":"SuperStore 3397-MAYORAZGO","index":223,"pristine":false,"geocode":{"formattedAddress":"Real Mayorazgo 130, Xoco, 03330 Ciudad de México, CDMX, Mexico","latitude":19.3594113,"longitude":-99.168053,"extra":{"googlePlaceId":"ChIJgf1_s-r_0YURzqFimpkQbOI","confidence":1,"premise":null,"subpremise":null,"neighborhood":"Xoco","establishment":null},"administrativeLevels":{"level1long":"Ciudad de México","level1short":"CDMX"},"streetNumber":"130","streetName":"Real Mayorazgo","city":"Ciudad de México","country":"Mexico","countryCode":"MX","zipcode":"03330","provider":"google"}},{"address":"Heriberto Frías No. 1107 Col. Del Valle","name":"SuperStore 3819-DEL VALLE","index":224,"pristine":false,"geocode":{"formattedAddress":"Heriberto Frías 1107, Benito Juárez, Narvarte Poniente, 03100 Ciudad de México, Mexico","latitude":19.381691,"longitude":-99.16273699999999,"extra":{"googlePlaceId":"ChIJFdasKaH_0YURzSPS6d8FGXo","confidence":0.5,"premise":null,"subpremise":null,"neighborhood":"Narvarte Poniente","establishment":null},"administrativeLevels":{},"city":"Ciudad de México","country":"Mexico","countryCode":"MX","zipcode":"03100","provider":"google"}},{"address":"Boulevard Xola No. 407 Col. Del Valle Norte,","name":"SuperStore 3223-DEL VALLE NORTE","index":225,"pristine":false,"geocode":{"formattedAddress":"Xola 407, código 2, Col del Valle Nte, 03103 Ciudad de México, CDMX, Mexico","latitude":19.3974859,"longitude":-99.1668315,"extra":{"googlePlaceId":"Ek5Yb2xhIDQwNywgY8OzZGlnbyAyLCBDb2wgZGVsIFZhbGxlIE50ZSwgMDMxMDMgQ2l1ZGFkIGRlIE3DqXhpY28sIENETVgsIE3DqXhpY28","confidence":0.9,"premise":null,"subpremise":null,"neighborhood":"código 2","establishment":null},"administrativeLevels":{"level1long":"Ciudad de México","level1short":"CDMX"},"streetNumber":"407","streetName":"Xola","city":"Ciudad de México","country":"Mexico","countryCode":"MX","zipcode":"03103","provider":"google"}},{"address":"Av. Río Churubusco No. 583","name":"SuperStore 1492-OLIPLAZA","index":226,"pristine":false,"geocode":{"formattedAddress":"Av. Río Churubusco 583, Aculco, 09410 Ciudad de México, CDMX, Mexico","latitude":19.3708243,"longitude":-99.1051868,"extra":{"googlePlaceId":"EkdBdi4gUsOtbyBDaHVydWJ1c2NvIDU4MywgQWN1bGNvLCAwOTQxMCBDaXVkYWQgZGUgTcOpeGljbywgQ0RNWCwgTcOpeGljbw","confidence":0.9,"premise":null,"subpremise":null,"neighborhood":"Aculco","establishment":null},"administrativeLevels":{"level1long":"Ciudad de México","level1short":"CDMX"},"streetNumber":"583","streetName":"Avenida Río Churubusco","city":"Ciudad de México","country":"Mexico","countryCode":"MX","zipcode":"09410","provider":"google"}},{"address":"Calz. Taxqueña No. 1752 Col. Paseos de Taxqueña,","name":"SuperStore 3199-PASEOS DE TAXQUEÑA","index":227,"pristine":false,"geocode":{"formattedAddress":"Calz Taxqueña 1752, Taxqueña, 04280 Ciudad de México, CDMX, Mexico","latitude":19.3386713,"longitude":-99.1266763,"extra":{"googlePlaceId":"ChIJg4-9cN8BzoUR0nnZoeCiHKg","confidence":1,"premise":null,"subpremise":null,"neighborhood":"Taxqueña","establishment":null},"administrativeLevels":{"level1long":"Ciudad de México","level1short":"CDMX"},"streetNumber":"1752","streetName":"Calzada Taxqueña","city":"Ciudad de México","country":"Mexico","countryCode":"MX","zipcode":"04280","provider":"google"}},{"address":"Av. Popocatepetl No 546","name":"SuperStore 3479-POPOCATEPETL","index":228,"pristine":false,"geocode":{"formattedAddress":"Av. Popocatépetl 546, Xoco, 03330 Ciudad de México, CDMX, Mexico","latitude":19.365808,"longitude":-99.1672608,"extra":{"googlePlaceId":"ChIJE69GFL7_0YURP2kH5kDx0yg","confidence":1,"premise":null,"subpremise":null,"neighborhood":"Xoco","establishment":null},"administrativeLevels":{"level1long":"Ciudad de México","level1short":"CDMX"},"streetNumber":"546","streetName":"Avenida Popocatépetl","city":"Ciudad de México","country":"Mexico","countryCode":"MX","zipcode":"03330","provider":"google"}},{"address":"Ajusco No. 126 Col. Portales","name":"SuperStore 3842-RIO CHURUBUSCO","index":229,"pristine":false,"geocode":{"formattedAddress":"Ajusco 126, Portales Nte, 03300 Ciudad de México, CDMX, Mexico","latitude":19.3581715,"longitude":-99.1519348,"extra":{"googlePlaceId":"ChIJNYYic8n_0YURpLtKM-UT1Wg","confidence":0.5,"premise":null,"subpremise":null,"neighborhood":"Portales Norte","establishment":null},"administrativeLevels":{"level1long":"Ciudad de México","level1short":"CDMX"},"streetNumber":"126","streetName":"Ajusco","city":"Ciudad de México","country":"Mexico","countryCode":"MX","zipcode":"03300","provider":"google"}},{"address":"Calzada de Los Leones No. 242 Col. Los Alpes  Delg. Alvaro Obregón Mexico D.F.","name":"SuperStore 2829-CALZADA DE LOS LEONES","index":230,"pristine":false},{"address":"Blvd. Picacho Ajusco No. 8","name":"SuperStore 2830-J.DE LA MONTAÑA","index":231,"pristine":false,"geocode":{"formattedAddress":"Picacho-Ajusco 8, Chimilli, 14749 Ciudad de México, CDMX, Mexico","latitude":19.2683806,"longitude":-99.21838989999999,"extra":{"googlePlaceId":"ChIJJVIew0P-zYURh9LwPOqA_1w","confidence":1,"premise":null,"subpremise":null,"neighborhood":"Chimilli","establishment":null},"administrativeLevels":{"level1long":"Ciudad de México","level1short":"CDMX"},"streetNumber":"8","streetName":"Picacho-Ajusco","city":"Ciudad de México","country":"Mexico","countryCode":"MX","zipcode":"14749","provider":"google"}},{"address":"Insurgentes Sur No. 4120","name":"SuperStore 3177-INS. LA JOYA","index":232,"pristine":false,"geocode":{"formattedAddress":"Av. Insurgentes Sur 4120, Tlalpan Centro II, 14000 Ciudad de México, CDMX, Mexico","latitude":19.2822766,"longitude":-99.17323569999999,"extra":{"googlePlaceId":"ChIJ8aZ7m44AzoUR5XIgtdBIhpk","confidence":1,"premise":null,"subpremise":null,"neighborhood":"Tlalpan Centro II","establishment":null},"administrativeLevels":{"level1long":"Ciudad de México","level1short":"CDMX"},"streetNumber":"4120","streetName":"Avenida Insurgentes Sur","city":"Ciudad de México","country":"Mexico","countryCode":"MX","zipcode":"14000","provider":"google"}},{"address":"Av. Sn. Jerónimo No.273 Col. La Otra Banda ","name":"SuperStore 3816-PEDREGAL","index":233,"pristine":false,"geocode":{"formattedAddress":"Av. San Jerónimo 273, Loreto y Campamento, 01090 Ciudad de México, CDMX, Mexico","latitude":19.3350326,"longitude":-99.1990879,"extra":{"googlePlaceId":"ChIJ5VMsbvj_zYUR6gtwxf_YamA","confidence":1,"premise":null,"subpremise":null,"neighborhood":"Loreto y Campamento","establishment":null},"administrativeLevels":{"level1long":"Ciudad de México","level1short":"CDMX"},"streetNumber":"273","streetName":"Avenida San Jerónimo","city":"Ciudad de México","country":"Mexico","countryCode":"MX","zipcode":"01090","provider":"google"}},{"address":"Av. Revolución No. 1151 Col. Mixcoac","name":"SuperStore 3818-REVOLUCIÓN","index":234,"pristine":false,"geocode":{"formattedAddress":"Av. Revolución 1151, Merced Gómez, 03930 Álvaro Obregón, CDMX, Mexico","latitude":19.364917,"longitude":-99.1894976,"extra":{"googlePlaceId":"ChIJ4bE6BYr_0YURkTYKYJ-sTpg","confidence":1,"premise":null,"subpremise":null,"neighborhood":"Merced Gómez","establishment":null},"administrativeLevels":{"level1long":"Ciudad de México","level1short":"CDMX"},"streetNumber":"1151","streetName":"Avenida Revolución","city":"Álvaro Obregón","country":"Mexico","countryCode":"MX","zipcode":"03930","provider":"google"}},{"address":"Calz. De Tlalpan  No.4467 Col. Toriello Guerra ","name":"SuperStore 3827-PERIFERICO","index":235,"pristine":false,"geocode":{"formattedAddress":"Calz. de Tlalpan 4467, Toriello Guerra, 14050 Ciudad de México, CDMX, Mexico","latitude":19.2958936,"longitude":-99.15529219999999,"extra":{"googlePlaceId":"ChIJISUJPFcAzoUR2ifFCifkQ94","confidence":1,"premise":null,"subpremise":null,"neighborhood":"Toriello Guerra","establishment":null},"administrativeLevels":{"level1long":"Ciudad de México","level1short":"CDMX"},"streetNumber":"4467","streetName":"Calzada de Tlalpan","city":"Ciudad de México","country":"Mexico","countryCode":"MX","zipcode":"14050","provider":"google"}},{"address":"Av. De Las Fuentes  No. 490 Jardines Del Pedregal","name":"SuperStore 3833-JARDINES","index":236,"pristine":false,"geocode":{"formattedAddress":"Av. de Las Fuentes 490, Jardines del Pedregal, 01900 Ciudad de México, CDMX, Mexico","latitude":19.3180648,"longitude":-99.2117516,"extra":{"googlePlaceId":"ElVBdi4gZGUgTGFzIEZ1ZW50ZXMgNDkwLCBKYXJkaW5lcyBkZWwgUGVkcmVnYWwsIDAxOTAwIENpdWRhZCBkZSBNw6l4aWNvLCBDRE1YLCBNw6l4aWNv","confidence":0.9,"premise":null,"subpremise":null,"neighborhood":"Jardines del Pedregal","establishment":null},"administrativeLevels":{"level1long":"Ciudad de México","level1short":"CDMX"},"streetNumber":"490","streetName":"Avenida de Las Fuentes","city":"Ciudad de México","country":"Mexico","countryCode":"MX","zipcode":"01900","provider":"google"}},{"address":"Av. Contreras No.386 Col. Sn. Jerónimo Lidice","name":"SuperStore 3837-LUIS CABRERA","index":237,"pristine":false,"geocode":{"formattedAddress":"Av. Contreras 386, San Jerónimo Lídice, 10200 Ciudad de México, CDMX, Mexico","latitude":19.3212112,"longitude":-99.22139039999999,"extra":{"googlePlaceId":"ChIJT2foQZD_zYURYIB6TN4gA6A","confidence":1,"premise":null,"subpremise":null,"neighborhood":"San Jerónimo Lídice","establishment":null},"administrativeLevels":{"level1long":"Ciudad de México","level1short":"CDMX"},"streetNumber":"386","streetName":"Avenida Contreras","city":"Ciudad de México","country":"Mexico","countryCode":"MX","zipcode":"10200","provider":"google"}},{"address":"Periférico Sur No 5270 Col. Sta. Úrsula Coyoacán Mexico, D.F.","name":"SuperStore 3840-PATIO PEDREGAL","index":238,"pristine":false,"geocode":{"formattedAddress":"Periferico Sur 5270, Santa Ursula, Pedregal de Carrasco, 04700 Ciudad de México, CDMX, Mexico","latitude":19.3029515,"longitude":-99.1728814,"extra":{"googlePlaceId":"El9QZXJpZmVyaWNvIFN1ciA1MjcwLCBTYW50YSBVcnN1bGEsIFBlZHJlZ2FsIGRlIENhcnJhc2NvLCAwNDcwMCBDaXVkYWQgZGUgTcOpeGljbywgQ0RNWCwgTcOpeGljbw","confidence":0.9,"premise":null,"subpremise":null,"neighborhood":"Santa Ursula","establishment":null},"administrativeLevels":{"level1long":"Ciudad de México","level1short":"CDMX"},"streetNumber":"5270","streetName":"Periferico Sur","city":"Ciudad de México","country":"Mexico","countryCode":"MX","zipcode":"04700","provider":"google"}},{"address":"Calle Unión No. 3 Colonia Fuentes del Pedregal","name":"SuperStore 3896-FTES. PEDREGAL","index":239,"pristine":false,"geocode":{"formattedAddress":"Calle Union No 3, Tlalpan, Lomas del Pedregal, 14220 Ciudad de México, CDMX, Mexico","latitude":19.3048377,"longitude":-99.2209405,"extra":{"googlePlaceId":"ChIJbSBne7v_zYUR-wHqq7gvGTM","confidence":0.5,"premise":null,"subpremise":null,"neighborhood":"Lomas del Pedregal","establishment":null},"administrativeLevels":{"level1long":"Ciudad de México","level1short":"CDMX"},"city":"Ciudad de México","country":"Mexico","countryCode":"MX","zipcode":"14220","provider":"google"}},{"address":"Av. Toluca No. 511  Col. Olivar de Los Padres","name":"SuperStore 3915-AV. TOLUCA","index":240,"pristine":false,"geocode":{"formattedAddress":"Av Toluca 511, Olivar de los Padres, 01780 Ciudad de México, CDMX, Mexico","latitude":19.3396042,"longitude":-99.21883,"extra":{"googlePlaceId":"ChIJPVIrv3YA0oURpNpwSae773I","confidence":1,"premise":null,"subpremise":null,"neighborhood":"Olivar de los Padres","establishment":null},"administrativeLevels":{"level1long":"Ciudad de México","level1short":"CDMX"},"streetNumber":"511","streetName":"Avenida Toluca","city":"Ciudad de México","country":"Mexico","countryCode":"MX","zipcode":"01780","provider":"google"}},{"address":"Georgia No. 53 Col. Nápoles","name":"SuperStore 3817-GEORGIA","index":241,"pristine":false,"geocode":{"formattedAddress":"Georgia 53, Nápoles, 03810 Benito Juárez, CDMX, Mexico","latitude":19.3897027,"longitude":-99.17558389999999,"extra":{"googlePlaceId":"ChIJP0K-03b_0YUR126xii9BKe4","confidence":1,"premise":null,"subpremise":null,"neighborhood":"Nápoles","establishment":null},"administrativeLevels":{"level1long":"Ciudad de México","level1short":"CDMX"},"streetNumber":"53","streetName":"Georgia","city":"Benito Juárez","country":"Mexico","countryCode":"MX","zipcode":"03810","provider":"google"}},{"address":"Boulevard Miguel de Cervantes Saavedra no. 380, (376a)Col. Irrigación,","name":"SuperStore 3481-GRAND POLANCO","index":242,"pristine":false,"geocode":{"formattedAddress":"380, Blvd. Miguel de Cervantes Saavedra 376, Col. Irrigación, Ciudad de México, CDMX, Mexico","latitude":19.4401829,"longitude":-99.20571939999999,"extra":{"googlePlaceId":"El8zODAsIEJsdmQuIE1pZ3VlbCBkZSBDZXJ2YW50ZXMgU2FhdmVkcmEgMzc2LCBDb2wuIElycmlnYWNpw7NuLCBDaXVkYWQgZGUgTcOpeGljbywgQ0RNWCwgTcOpeGljbw","confidence":1,"premise":null,"subpremise":"380","neighborhood":"Colonia Irrigación","establishment":null},"administrativeLevels":{"level1long":"Ciudad de México","level1short":"CDMX"},"streetNumber":"376","streetName":"Boulevard Miguel de Cervantes Saavedra","city":"Ciudad de México","country":"Mexico","countryCode":"MX","provider":"google"}},{"address":"Av. Homero No.310  Col. Chapultepec Morales","name":"SuperStore 3832-HOMERO","index":243,"pristine":false,"geocode":{"formattedAddress":"Avenida Homero 310, Polanco, Polanco V Secc, 11560 Ciudad de México, CDMX, Mexico","latitude":19.4348919,"longitude":-99.1858781,"extra":{"googlePlaceId":"ChIJm2Zvvqv40YUREAg8CSxmwdA","confidence":1,"premise":null,"subpremise":null,"neighborhood":"Polanco","establishment":null},"administrativeLevels":{"level1long":"Ciudad de México","level1short":"CDMX"},"streetNumber":"310","streetName":"Avenida Homero","city":"Ciudad de México","country":"Mexico","countryCode":"MX","zipcode":"11560","provider":"google"}},{"address":"Horacio No. 603 Col. Chapultepec Morales","name":"SuperStore 3811-HORACIO","index":244,"pristine":false,"geocode":{"formattedAddress":"Superama Horacio. Horacio No. 603. Col. Chapultepec Del. Miguel Hidalgo, Morales, Santiago Tepalcatlalpan, 11570 Ciudad de México, CDMX, Mexico","latitude":19.4337563,"longitude":-99.1899215,"extra":{"googlePlaceId":"ChIJe9dmf6r40YURHPqMOWsnajY","confidence":0.5,"premise":null,"subpremise":null,"neighborhood":"Santiago Tepalcatlalpan","establishment":null},"administrativeLevels":{"level1long":"Ciudad de México","level1short":"CDMX"},"streetName":"Morales","city":"Ciudad de México","country":"Mexico","countryCode":"MX","zipcode":"11570","provider":"google"}},{"address":"Maximino Avila Camacho No. 32 Col. Ciudad De Los Deportes","name":"SuperStore 3834-INDIANA","index":245,"pristine":false,"geocode":{"formattedAddress":"Maximino Ávila Camacho 32, Cd de los Deportes, 03710 De los Deportes, CDMX, Mexico","latitude":19.3839102,"longitude":-99.1771704,"extra":{"googlePlaceId":"ChIJSy5633f_0YURaw8ssez67dk","confidence":1,"premise":null,"subpremise":null,"neighborhood":"Ciudad de los Deportes","establishment":null},"administrativeLevels":{"level1long":"Ciudad de México","level1short":"CDMX"},"streetNumber":"32","streetName":"Maximino Ávila Camacho","city":"De los Deportes","country":"Mexico","countryCode":"MX","zipcode":"03710","provider":"google"}},{"address":"Horacio No. 1740 Col. Chapultepec Morales","name":"SuperStore 3828-LOS MORALES","index":246,"pristine":false,"geocode":{"formattedAddress":"Avenida Horacio 1740, Polanco, Polanco I Secc, 11510 Ciudad de México, CDMX, Mexico","latitude":19.43505,"longitude":-99.20956319999999,"extra":{"googlePlaceId":"ChIJT5DjKh8C0oURGIHwXRqp98g","confidence":1,"premise":null,"subpremise":null,"neighborhood":"Polanco","establishment":null},"administrativeLevels":{"level1long":"Ciudad de México","level1short":"CDMX"},"streetNumber":"1740","streetName":"Avenida Horacio","city":"Ciudad de México","country":"Mexico","countryCode":"MX","zipcode":"11510","provider":"google"}},{"address":"Michoacán No. 38 Col. Hipódromo Condesa","name":"SuperStore 3820-MICHOACÁN","index":247,"pristine":false,"geocode":{"formattedAddress":"Av Michoacán 38, Hipódromo, 06100 Ciudad de México, CDMX, Mexico","latitude":19.4113083,"longitude":-99.1711991,"extra":{"googlePlaceId":"ChIJtYt5BUH_0YURf9okQr4A70I","confidence":1,"premise":null,"subpremise":null,"neighborhood":"Hipódromo","establishment":null},"administrativeLevels":{"level1long":"Ciudad de México","level1short":"CDMX"},"streetNumber":"38","streetName":"Avenida Michoacán","city":"Ciudad de México","country":"Mexico","countryCode":"MX","zipcode":"06100","provider":"google"}},{"address":"Pachuca No.99 Col. Condesa","name":"SuperStore 3809-PACHUCA","index":248,"pristine":false,"geocode":{"formattedAddress":"Pachuca 99, Condesa, 06140 Ciudad de México, CDMX, Mexico","latitude":19.4152635,"longitude":-99.17807309999999,"extra":{"googlePlaceId":"ChIJXV0SxkT_0YURwrLIpE5WcTc","confidence":1,"premise":null,"subpremise":null,"neighborhood":"Condesa","establishment":null},"administrativeLevels":{"level1long":"Ciudad de México","level1short":"CDMX"},"streetNumber":"99","streetName":"Pachuca","city":"Ciudad de México","country":"Mexico","countryCode":"MX","zipcode":"06140","provider":"google"}},{"address":"Lago Alberto No. 320,","name":"SuperStore 3025-PARQUES POLANCO","index":249,"pristine":false,"geocode":{"formattedAddress":"Lago Alberto 320, Granada, 11520 Ciudad de México, CDMX, Mexico","latitude":19.4403929,"longitude":-99.1848847,"extra":{"googlePlaceId":"ChIJx0DN26j40YUR1q-6UWSsUg8","confidence":1,"premise":null,"subpremise":null,"neighborhood":"Granada","establishment":null},"administrativeLevels":{"level1long":"Ciudad de México","level1short":"CDMX"},"streetNumber":"320","streetName":"Lago Alberto","city":"Ciudad de México","country":"Mexico","countryCode":"MX","zipcode":"11520","provider":"google"}},{"address":"Pedro Romero De Terreros No. 1461 Col. Narvarte","name":"SuperStore 3812-NARVARTE","index":250,"pristine":false,"geocode":{"formattedAddress":"Pedro Romero de Terreros 1461, Narvarte Poniente, 03020 Benito Juárez, CDMX, Mexico","latitude":19.3931293,"longitude":-99.1543342,"extra":{"googlePlaceId":"ChIJZR3jswX_0YUR99xsjb5HcNo","confidence":1,"premise":null,"subpremise":null,"neighborhood":"Narvarte Poniente","establishment":null},"administrativeLevels":{"level1long":"Ciudad de México","level1short":"CDMX"},"streetNumber":"1461","streetName":"Pedro Romero de Terreros","city":"Benito Juárez","country":"Mexico","countryCode":"MX","zipcode":"03020","provider":"google"}},{"address":"Rio Balsas No. 23 Col. Cuauhtémoc","name":"SuperStore 3810-SENA","index":251,"pristine":false,"geocode":{"formattedAddress":"Calle Río Balsas 23, Cuauhtémoc, 06500 Ciudad de México, CDMX, Mexico","latitude":19.4333482,"longitude":-99.16801489999999,"extra":{"googlePlaceId":"ChIJaaIYYbX40YUR2cdqlj0d0Ok","confidence":1,"premise":null,"subpremise":null,"neighborhood":"Cuauhtémoc","establishment":null},"administrativeLevels":{"level1long":"Ciudad de México","level1short":"CDMX"},"streetNumber":"23","streetName":"Calle Río Balsas","city":"Ciudad de México","country":"Mexico","countryCode":"MX","zipcode":"06500","provider":"google"}},{"address":"Av. Dakota No. 95","name":"SuperStore 3480-WTC DAKOTA","index":252,"pristine":false,"geocode":{"formattedAddress":"95 Dakota Ave N, Maddock, ND 58348, USA","latitude":47.9638226,"longitude":-99.5286617,"extra":{"googlePlaceId":"ChIJJQWDIn6g21IRIOnop28tdEM","confidence":1,"premise":null,"subpremise":null,"neighborhood":null,"establishment":null},"administrativeLevels":{"level2long":"Benson County","level2short":"Benson County","level1long":"North Dakota","level1short":"ND"},"streetNumber":"95","streetName":"Dakota Avenue North","city":"Maddock","country":"United States","countryCode":"US","zipcode":"58348","provider":"google"}},{"address":"LAGO DE GPE S/N LOTE 2 LOCAL SA03","name":"Red Barn Stores 4191-LAGO DE GUADALUPE ","index":253,"pristine":false},{"address":"Av. De Los Bosques No. 234 Col. Lomas De Tecamachalco Huixquilucan, Edo. De Mexico","name":"SuperStore 3835-LOMAS ANAHUAC","index":254,"pristine":false,"geocode":{"formattedAddress":"Av. de los Bosques, Mexico","latitude":19.4111445,"longitude":-99.25031829999999,"extra":{"googlePlaceId":"EhtBdi4gZGUgbG9zIEJvc3F1ZXMsIE3DqXhpY28","confidence":0.7,"premise":null,"subpremise":null,"neighborhood":null,"establishment":null},"administrativeLevels":{},"streetName":"Avenida de los Bosques","country":"Mexico","countryCode":"MX","provider":"google"}},{"address":"Av. Gustavo Baz 3 244 Col. Echegaray Naucalpan Edo. De Mexico","name":"SuperStore 3629-ECHEGARAY","index":255,"pristine":false,"geocode":{"formattedAddress":"Av Gustavo Baz 3, Naucalpan Centro, 53000 Naucalpan de Juárez, Méx., Mexico","latitude":19.4795251,"longitude":-99.23244319999999,"extra":{"googlePlaceId":"Ek5BdiBHdXN0YXZvIEJheiAzLCBOYXVjYWxwYW4gQ2VudHJvLCA1MzAwMCBOYXVjYWxwYW4gZGUgSnXDoXJleiwgTcOpeC4sIE3DqXhpY28","confidence":0.9,"premise":null,"subpremise":null,"neighborhood":"Naucalpan Centro","establishment":null},"administrativeLevels":{"level1long":"Estado de México","level1short":"Méx."},"streetNumber":"3","streetName":"Avenida Gustavo Baz","city":"Naucalpan de Juárez","country":"Mexico","countryCode":"MX","zipcode":"53000","provider":"google"}},{"address":"BOSQUES DEL ESTADO DE MEXICO NO. 2 LOTE 1,","name":"Red Barn Stores 3016-MACRO PLAZA HEROES TEC.","index":256,"pristine":false,"geocode":{"formattedAddress":"Av. Bosques del Estado de México Mz 1 Lote 1, Los Héroes Tecámac II, 55764 Tecamac, Méx., Mexico","latitude":19.61868,"longitude":-99.041281,"extra":{"googlePlaceId":"ChIJ06q0lo7x0YURMYNJBKDVhrc","confidence":0.5,"premise":null,"subpremise":null,"neighborhood":"Los Héroes Tecámac II","establishment":null},"administrativeLevels":{"level1long":"Estado de México","level1short":"Méx."},"city":"Tecamac","country":"Mexico","countryCode":"MX","zipcode":"55764","provider":"google"}},{"address":"Av. Fuentes de Satélite No. 1 Fraccionamiento Col. Jardines de Bellavista, Tlalnepantla de Baz, Edo. De Mexico","name":"SuperStore 3824-ORADORES","index":257,"pristine":false,"geocode":{"formattedAddress":"local 6, Rtno. Fuentes de Satélite 1, Jardines de Bellavista, Colonial Satelite, 54054 Tlalnepantla, Méx., Mexico","latitude":19.519724,"longitude":-99.253249,"extra":{"googlePlaceId":"ChIJLfS8MbUc0oURYhasJ1XHUKE","confidence":0.5,"premise":null,"subpremise":null,"neighborhood":"Jardines de Bellavista","establishment":null},"administrativeLevels":{"level1long":"Estado de México","level1short":"Méx."},"streetNumber":"1","streetName":"Retorno Fuentes de Satélite","city":"Tlalnepantla","country":"Mexico","countryCode":"MX","zipcode":"54054","provider":"google"}},{"address":"Blvd.Melchor Ocampo No.120/Col.Barrio de Santiago.","name":"La Tienda Especiál 5770-Zumpango","index":258,"pristine":false,"geocode":{"formattedAddress":"Av Melchor Ocampo 120, 28 de Octubre, Uruapan, Mich., Mexico","latitude":19.4253042,"longitude":-102.0854074,"extra":{"googlePlaceId":"Ej1BdiBNZWxjaG9yIE9jYW1wbyAxMjAsIDI4IGRlIE9jdHVicmUsIFVydWFwYW4sIE1pY2guLCBNw6l4aWNv","confidence":0.9,"premise":null,"subpremise":null,"neighborhood":"28 de Octubre","establishment":null},"administrativeLevels":{"level1long":"Michoacán","level1short":"Mich."},"streetNumber":"120","streetName":"Avenida Melchor Ocampo","city":"Uruapan","country":"Mexico","countryCode":"MX","provider":"google"}},{"address":"Blvd. Manuel Avila Camacho No. 3130, Tlalnepantla, Estado de México","name":"SuperStore 1408-VALLE DORADO","index":259,"pristine":false,"geocode":{"formattedAddress":"Perif. Blvd. Manuel Ávila Camacho 3130, Valle Dorado, 54020 Tlalnepantla, Méx., Mexico","latitude":19.5476577,"longitude":-99.2108951,"extra":{"googlePlaceId":"ChIJTUMIn2od0oURVufJecHoJmw","confidence":1,"premise":null,"subpremise":null,"neighborhood":"Valle Dorado","establishment":null},"administrativeLevels":{"level1long":"Estado de México","level1short":"Méx."},"streetNumber":"3130","streetName":"Periférico Boulevard Manuel Ávila Camacho","city":"Tlalnepantla","country":"Mexico","countryCode":"MX","zipcode":"54020","provider":"google"}},{"address":"Av. Río Bravo No. 6, Col. El Salado, La Paz, Estado de México,","name":"La Tienda Especiál 5813-La Paz","index":260,"pristine":false,"geocode":{"formattedAddress":"Río Bravo 6, El Salado, 56524 Los Reyes Acaquilpan, Méx., Mexico","latitude":19.3692921,"longitude":-98.95889989999999,"extra":{"googlePlaceId":"ChIJv9awYWji0YURYbzXgGdmYtY","confidence":1,"premise":null,"subpremise":null,"neighborhood":"El Salado","establishment":null},"administrativeLevels":{"level1long":"Estado de México","level1short":"Méx."},"streetNumber":"6","streetName":"Río Bravo","city":"Los Reyes Acaquilpan","country":"Mexico","countryCode":"MX","zipcode":"56524","provider":"google"}},{"address":"Montevideo No. 360 Col. Lindavista","name":"SuperStore 3821-LINDAVISTA","index":261,"pristine":false,"geocode":{"formattedAddress":"Av. Montevideo 360, Lindavista, 07300 Ciudad de México, CDMX, Mexico","latitude":19.490267,"longitude":-99.13404109999999,"extra":{"googlePlaceId":"ChIJh3reaKX50YURHsiS4u1vjBo","confidence":0.5,"premise":null,"subpremise":null,"neighborhood":"Lindavista","establishment":null},"administrativeLevels":{"level1long":"Ciudad de México","level1short":"CDMX"},"streetNumber":"360","streetName":"Avenida Montevideo","city":"Ciudad de México","country":"Mexico","countryCode":"MX","zipcode":"07300","provider":"google"}},{"address":"AUTOPISTA MEXICO-QUERETARO KM 30.2","name":"Red Barn Stores 4154-PERINORTE","index":262,"pristine":false,"geocode":{"formattedAddress":"Autopista México - Querétaro 30, Niños Heroes, Tlalnepantla, Méx., Mexico","latitude":19.5617409,"longitude":-99.2008108,"extra":{"googlePlaceId":"Ek5BdXRvcGlzdGEgTcOpeGljbyAtIFF1ZXLDqXRhcm8gMzAsIE5pw7FvcyBIZXJvZXMsIFRsYWxuZXBhbnRsYSwgTcOpeC4sIE3DqXhpY28","confidence":0.9,"premise":null,"subpremise":null,"neighborhood":"Niños Heroes","establishment":null},"administrativeLevels":{"level1long":"Estado de México","level1short":"Méx."},"streetNumber":"30","streetName":"Autopista México - Querétaro","city":"Tlalnepantla","country":"Mexico","countryCode":"MX","provider":"google"}},{"address":"Sierra Ventana No.750 Col. Lomas de Chapultepec","name":"SuperStore 3814-BARRILACO","index":263,"pristine":false,"geocode":{"formattedAddress":"Sierra Ventanas 750, Lomas de Chapultepec V Secc, 11000 Ciudad de México, CDMX, Mexico","latitude":19.4157429,"longitude":-99.22616339999999,"extra":{"googlePlaceId":"ChIJQW0_IZsB0oURGL3uNlYltRM","confidence":1,"premise":null,"subpremise":null,"neighborhood":"Lomas de Chapultepec V Sección","establishment":null},"administrativeLevels":{"level1long":"Ciudad de México","level1short":"CDMX"},"streetNumber":"750","streetName":"Sierra Ventana","city":"Ciudad de México","country":"Mexico","countryCode":"MX","zipcode":"11000","provider":"google"}},{"address":"Bosques de Duraznos 187 Loc. 1 Col. Bosques de Las Lomas","name":"SuperStore 3829-BOSQUES DE LAS LOMAS","index":264,"pristine":false,"geocode":{"formattedAddress":"Local A-06, Parque Duraznos, Bosque de Duraznos 30, Bosque de las Lomas, 11700 Ciudad de México, CDMX, Mexico","latitude":19.4028795,"longitude":-99.2427809,"extra":{"googlePlaceId":"ChIJy60QGg0B0oURMfkjllAQg-A","confidence":0.5,"premise":null,"subpremise":"Local A-06","neighborhood":"Bosque de las Lomas","establishment":"Parque Duraznos"},"administrativeLevels":{"level1long":"Ciudad de México","level1short":"CDMX"},"streetNumber":"30","streetName":"Bosque de Duraznos","city":"Ciudad de México","country":"Mexico","countryCode":"MX","zipcode":"11700","provider":"google"}},{"address":"Paseo de Las Lilas No.92 Col. Bosques De Las Lomas","name":"SuperStore 3841-LILAS","index":265,"pristine":false,"geocode":{"formattedAddress":"Calle Paseo de Las Lilas 92, Bosques de las Lomas, 11910 Ciudad de México, CDMX, Mexico","latitude":19.3879597,"longitude":-99.24770269999999,"extra":{"googlePlaceId":"ChIJeQakDBsB0oURfyXZjyqnEOY","confidence":1,"premise":null,"subpremise":null,"neighborhood":"Bosques de las Lomas","establishment":null},"administrativeLevels":{"level1long":"Ciudad de México","level1short":"CDMX"},"streetNumber":"92","streetName":"Calle Paseo de Las Lilas","city":"Ciudad de México","country":"Mexico","countryCode":"MX","zipcode":"11910","provider":"google"}},{"address":"Av. Tamaulipas No. 3000 Col. Santa Fe","name":"SuperStore 3881-SANTA FE","index":266,"pristine":false,"geocode":{"formattedAddress":"Superama Av. Tamaulipas No. 3000, Local 2. Col. Santa Fe. Del., Sta Fé, 05100 Ciudad de México, CDMX, Mexico","latitude":19.35593,"longitude":-99.27670529999999,"extra":{"googlePlaceId":"ChIJLyjgmMoA0oURw_nIA-avq9Q","confidence":0.5,"premise":null,"subpremise":null,"neighborhood":"Santa Fé","establishment":null},"administrativeLevels":{"level1long":"Ciudad de México","level1short":"CDMX"},"city":"Ciudad de México","country":"Mexico","countryCode":"MX","zipcode":"05100","provider":"google"}},{"address":"Aguilar y Seixas No. 123 Col. Molino Del Rey","name":"SuperStore 3830-VIRREYES","index":267,"pristine":false},{"address":"Av. Noche de Paz No. 38 Col. Granjas Navidad ","name":"SuperStore 3921-VISTA HERMOSA","index":268,"pristine":false,"geocode":{"formattedAddress":"Av Noche de Paz 38, Granjas Navidad, 05249 Ciudad de México, CDMX, Mexico","latitude":19.3729184,"longitude":-99.2789203,"extra":{"googlePlaceId":"ChIJ4R0fVisH0oURyxpZO1eN--o","confidence":1,"premise":null,"subpremise":null,"neighborhood":"Granjas Navidad","establishment":null},"administrativeLevels":{"level1long":"Ciudad de México","level1short":"CDMX"},"streetNumber":"38","streetName":"Avenida Noche de Paz","city":"Ciudad de México","country":"Mexico","countryCode":"MX","zipcode":"05249","provider":"google"}},{"address":"Calz. de Las Águilas No. 1819 Col. San Antonio Tarango Delg. Alvaro Obregón Mexico, D.F.","name":"SuperStore 5817-AXOMIATLA","index":269,"pristine":false,"geocode":{"formattedAddress":"Av. Barranca de Tarango 80, Delegación Álvaro Obregón, Col. San Antonio Tarango, 01820 Ciudad de México, CDMX, Mexico","latitude":19.343019,"longitude":-99.25048299999999,"extra":{"googlePlaceId":"ChIJyVY0Ki0A0oURKNK6ExWvoz4","confidence":0.5,"premise":null,"subpremise":null,"neighborhood":"Col. San Antonio Tarango","establishment":null},"administrativeLevels":{"level1long":"Ciudad de México","level1short":"CDMX"},"city":"Ciudad de México","country":"Mexico","countryCode":"MX","zipcode":"01820","provider":"google"}},{"address":"Bosque de Minas No. 33 Col. Bosques de La Herradura Huixquilucan, Edo. de Mexico","name":"SuperStore 3844-BOSQUES DE MINAS","index":270,"pristine":false,"geocode":{"formattedAddress":"Av. Bosque de Minas 33, Bosques de la Herradura, 52783 Naucalpan de Juárez, Méx., Mexico","latitude":19.4225507,"longitude":-99.2598527,"extra":{"googlePlaceId":"ChIJx21A7V4B0oURiJ_Jmv99Jpw","confidence":1,"premise":null,"subpremise":null,"neighborhood":"Bosques de la Herradura","establishment":null},"administrativeLevels":{"level1long":"Estado de México","level1short":"Méx."},"streetNumber":"33","streetName":"Avenida Bosque de Minas","city":"Naucalpan de Juárez","country":"Mexico","countryCode":"MX","zipcode":"52783","provider":"google"}},{"address":"Av. Jesús Del Monte No. 37,","name":"SuperStore 3034-FUENTES DE LAS LOMAS","index":271,"pristine":false,"geocode":{"formattedAddress":"Avenida Jesús del Monte 37, Hacienda de las Palmas, 52763 Méx., Mexico","latitude":19.3952406,"longitude":-99.2892174,"extra":{"googlePlaceId":"ChIJZwMRVM8G0oURBX40hFA2_kM","confidence":1,"premise":null,"subpremise":null,"neighborhood":"Hacienda de las Palmas","establishment":null},"administrativeLevels":{"level1long":"Estado de México","level1short":"Méx."},"streetNumber":"37","streetName":"Avenida Jesús del Monte","country":"Mexico","countryCode":"MX","zipcode":"52763","provider":"google"}},{"address":"Avenida Tláhuac 4409, Itzapalapa, Lomas Estrella, 09890 Ciudad de México, D.F., México","name":"KAYCHEE  175-Lomas Estrella","index":272,"pristine":false,"geocode":{"formattedAddress":"Av. Tláhuac 4409, Lomas Estrella 2da Secc, 09890 Ciudad de México, CDMX, Mexico","latitude":19.3211974,"longitude":-99.0942987,"extra":{"googlePlaceId":"ChIJsRxoEhkCzoUR11Yylrlo94c","confidence":1,"premise":null,"subpremise":null,"neighborhood":"Lomas Estrella 2da Sección","establishment":null},"administrativeLevels":{"level1long":"Ciudad de México","level1short":"CDMX"},"streetNumber":"4409","streetName":"Avenida Tláhuac","city":"Ciudad de México","country":"Mexico","countryCode":"MX","zipcode":"09890","provider":"google"}}]